     3.03           OBSERVATION DATA    M: Mixed            RINEX VERSION / TYPE
rinex ON            NSL                 20190903 093438 UTC PGM / RUN BY / DATE
                                                            MARKER NAME
                                                            MARKER TYPE
rinex ON User                                               OBSERVER / AGENCY
  4508580.6147   708390.8286  4440702.2994                  APPROX POSITION XYZ
XXXXXXXX            Xiaomi              MI 9                REC # / TYPE / VERS
XXXXXXXX            MI 9                                    ANT # / TYPE
        0.0000        0.0000        0.0000                  APPROX POSITION XYZ
        0.0000        0.0000        0.0000                  ANTENNA: DELTA H/E/N
G    8 C1C L1C D1C S1C C5X L5X D5X S5X                      SYS / # / OBS TYPES
R    4 C1C L1C D1C S1C                                      SYS / # / OBS TYPES
E    8 C1C L1C D1C S1C C5X L5X D5X S5X                      SYS / # / OBS TYPES
C    4 C2I L2I D2I S2I                                      SYS / # / OBS TYPES
J    8 C1C L1C D1C S1C C5X L5X D5X S5X                      SYS / # / OBS TYPES
  2019    09    03    07    34   56.4307436     GPS         TIME OF FIRST OBS
                                                            END OF HEADER
> 2019 09 03 07 34 56.4307436  0 18
G10  23883468.919           0.000        3480.950          16.900                                                            
G16  20648459.469           0.000        1198.259          36.700                                                            
G20  21989441.327           0.000        2572.650          24.400                                                            
G21  21040027.992           0.000       -1204.250          16.400                                                            
G26  20421471.609           0.000        -758.400          27.500                                                            
G27  22386630.958           0.000        2534.950          23.800                                                            
G31  24888321.374           0.000       -3346.150          18.800                                                            
R18  19739598.760           0.000         636.517          35.400                                                            
R16  19965985.836           0.000         -27.450          30.000                                                            
R15  21169599.491           0.000       -3767.500          13.100                                                            
R01  23228989.006           0.000       -1302.450          18.700                                                            
R17  20549063.280           0.000       -2293.850          16.100                                                            
C27  23230227.148           0.000        1951.500          26.500                                                            
E01  27256814.900           0.000        2601.300          16.500                                                            
E13  23434156.471           0.000         728.421          36.100    23432031.842           0.000         543.904          30.700
E21  24063496.688           0.000         281.050          25.500    24061380.453           0.000         211.288          29.900
E26  25761821.562           0.000        2414.713          30.400    25759700.530           0.000        1802.836          34.200
E15  24068261.889           0.000       -1234.650          24.600                                                            
> 2019 09 03 07 34 57.4307436  0 18
G10  23882806.377           0.000        3480.950          16.900                                                            
G16  20648232.526           0.000        1199.769          38.700                                                            
G20  21988925.384           0.000        2570.650          25.500                                                            
G21  21040257.333           0.000       -1204.250          16.400                                                            
G26  20421622.705           0.000        -758.050          28.400                                                            
G27  22386168.078           0.000        2538.300          23.600                                                            
G31  24888979.718           0.000       -3357.650          18.500                                                            
R18  19739479.143           0.000         638.103          37.300                                                            
R16  19966013.417           0.000         -26.091          31.900                                                            
R15  21170304.603           0.000       -3767.500          13.100                                                            
R01  23229232.737           0.000       -1302.450          18.700                                                            
R17  20549542.048           0.000       -2302.800          17.400                                                            
C27  23229853.907           0.000        1955.050          27.300                                                            
E01  27256319.942           0.000        2601.300          16.500                                                            
E13  23434014.070           0.000         730.004          37.700    23431893.038           0.000         545.666          30.100
E21  24063439.128           0.000         286.900          27.500    24061326.790           0.000         212.178          32.200
E26  25761362.280           0.000        2416.470          31.300    25759241.248           0.000        1804.779          32.500
E15  24068576.671           0.000       -1237.400          24.900                                                            
> 2019 09 03 07 34 58.4307436  0 17
G10  23882133.043           0.000        3480.750          18.400                                                            
G16  20648003.185           0.000        1200.013          39.900                                                            
G20  21988437.621           0.000        2571.650          26.400                                                            
G21  21040486.374           0.000       -1204.250          16.400                                                            
G26  20421762.108           0.000        -759.100          28.200                                                            
G27  22385690.209           0.000        2534.800          25.200                                                            
G31  24889632.066           0.000       -3349.400          21.700                                                            
R18  19739365.821           0.000         638.774          38.400                                                            
R16  19966002.624           0.000         -26.020          31.900                                                            
R15  21171009.415           0.000       -3767.500          13.100                                                            
R01  23229445.290           0.000       -1306.700          20.500                                                            
R17  20549972.550           0.000       -2302.800          17.400                                                            
C27  23229480.066           0.000        1954.500          26.800                                                            
E13  23433877.964           0.000         730.936          39.200    23431754.234           0.000         546.352          31.800
E21  24063384.566           0.000         283.850          27.800    24061273.727           0.000         213.073          32.200
E26  25760902.099           0.000        2417.468          32.500    25758780.467           0.000        1804.931          31.300
E15  24068894.751           0.000       -1232.600          23.700                                                            
> 2019 09 03 07 34 59.4307436  0 17
G10  23881470.802           0.000        3480.750          18.400                                                            
G16  20647776.842           0.000        1199.061          40.100                                                            
G20  21987986.134           0.000        2570.850          26.100                                                            
G21  21040715.716           0.000       -1204.250          16.400                                                            
G26  20421885.923           0.000        -761.650          22.900                                                            
G27  22385185.359           0.000        2535.000          24.200                                                            
G31  24890264.628           0.000       -3353.200          25.300                                                            
R18  19739243.506           0.000         637.693          38.700                                                            
R16  19966010.419           0.000         -27.428          35.400                                                            
R15  21171714.527           0.000       -3767.500          13.100                                                            
R01  23229686.323           0.000       -1305.750          24.400                                                            
R17  20550402.752           0.000       -2302.800          17.400                                                            
C27  23229108.323           0.000        1954.350          28.000                                                            
E13  23433740.959           0.000         729.887          39.900    23431614.831           0.000         545.023          32.600
E21  24063344.094           0.000         283.784          33.800    24061219.165           0.000         211.648          32.800
E26  25760438.919           0.000        2416.358          32.200    25758321.785           0.000        1803.998          30.700
E15  24069208.933           0.000       -1232.600          23.700                                                            
> 2019 09 03 07 35  0.4307436  0 18
G10  23880808.260           0.000        3480.750          18.400                                                            
G16  20647546.301           0.000        1203.186          40.200                                                            
G20  21987487.279           0.000        2575.500          26.600                                                            
G21  21040944.757           0.000       -1204.250          16.400                                                            
G26  20422030.722           0.000        -761.650          22.900                                                            
G27  22384702.993           0.000        2535.000          24.200                                                            
G31  24890921.773           0.000       -3350.700          25.200                                                            
R18  19739110.098           0.000         642.121          39.100                                                            
R16  19966010.119           0.000         -24.001          36.300                                                            
R15  21172419.639           0.000       -3767.500          13.100                                                            
R01  23229898.276           0.000       -1301.500          24.500                                                            
R17  20550832.954           0.000       -2302.800          17.400                                                            
C27  23228729.985           0.000        1957.650          27.200                                                            
E13  23433601.855           0.000         733.947          39.000    23431473.029           0.000         548.786          32.900
E21  24063287.433           0.000         287.760          35.600    24061163.103           0.000         215.582          28.800
E26  25759986.532           0.000        2422.250          28.700    25757859.505           0.000        1809.150          29.000
E27  24664812.606           0.000       -2439.000          18.400                                                            
E15  24069523.116           0.000       -1232.600          23.700                                                            
> 2019 09 03 07 35  1.4307436  0 18
G10  23880146.019           0.000        3480.750          18.400                                                            
G16  20647319.358           0.000        1201.521          38.500                                                            
G20  21986993.821           0.000        2575.800          24.900                                                            
G21  21041173.798           0.000       -1204.250          16.400                                                            
G26  20422175.822           0.000        -761.650          22.900    20419853.030           0.000        -560.100          23.200
G27  22384226.922           0.000        2547.200          20.300                                                            
G31  24891552.837           0.000       -3351.000          23.300                                                            
R18  19738994.079           0.000         640.636          38.200                                                            
R16  19966019.113           0.000         -25.749          35.100                                                            
R15  21173124.751           0.000       -3767.500          13.100                                                            
R01  23230141.708           0.000       -1301.500          24.500                                                            
R17  20551273.050           0.000       -2294.250          16.300                                                            
C27  23228349.248           0.000        1954.200          26.900                                                            
E13  23433464.550           0.000         732.909          37.200    23431336.323           0.000         547.650          36.600
E21  24063236.768           0.000         286.884          35.500    24061111.839           0.000         214.392          33.500
E26  25759519.456           0.000        2419.750          28.400    25757398.424           0.000        1807.318          29.500
E27  24665276.684           0.000       -2439.000          18.400                                                            
E15  24069836.999           0.000       -1232.600          23.700                                                            
> 2019 09 03 07 35  2.4307436  0 17
G10  23879483.478           0.000        3480.750          18.400                                                            
G16  20647085.820           0.000        1198.867          37.200                                                            
G20  21986521.648           0.000        2567.250          22.300                                                            
G21  21041403.140           0.000       -1204.250          16.400                                                            
G27  22383734.663           0.000        2538.100          27.100    22381382.491           0.000        1901.800          25.500
G31  24892204.885           0.000       -3356.350          23.300                                                            
R18  19738881.657           0.000         638.158          38.200                                                            
R16  19966039.199           0.000         -28.684          34.800                                                            
R01  23230395.032           0.000       -1301.850          18.600                                                            
R17  20551701.753           0.000       -2294.250          16.300                                                            
C27  23227968.212           0.000        1957.350          25.600                                                            
E13  23433318.851           0.000         730.564          32.700    23431197.220           0.000         546.001          42.900
E21  24063182.206           0.000         283.858          32.900    24061057.576           0.000         212.447          42.300
E26  25759052.379           0.000        2417.985          30.800    25756940.041           0.000        1805.353          30.500
E27  24665741.662           0.000       -2438.250          20.400                                                            
G26  20419996.031           0.000        -567.241          28.500                                                            
E15  24070151.181           0.000       -1232.600          23.700                                                            
> 2019 09 03 07 35  3.4307436  0 17
G10  23878821.236           0.000        3480.750          18.400                                                            
G16  20646865.173           0.000        1196.250          35.800                                                            
G20  21986032.986           0.000        2567.250          22.300                                                            
G21  21041632.181           0.000       -1204.250          16.400                                                            
G26  20422497.499           0.000        -759.350          22.700    20420142.629           0.000        -572.400          24.000
G27  22383236.108           0.000        2532.350          24.100    22380898.027           0.000        1901.800          25.500
G31  24892843.743           0.000       -3356.350          23.300                                                            
R18  19738765.637           0.000         635.501          35.000                                                            
R16  19966020.312           0.000         -31.745          33.200                                                            
R01  23230638.464           0.000       -1301.850          18.600                                                            
R17  20552130.456           0.000       -2294.250          16.300                                                            
C27  23227596.769           0.000        1954.850          26.400                                                            
E13  23433185.443           0.000         728.412          34.300    23431057.217           0.000         544.420          36.800
E21  24063128.543           0.000         281.601          33.500    24061003.914           0.000         211.151          38.100
E26  25758597.294           0.000        2415.449          29.600    25756480.460           0.000        1804.303          30.100
E27  24666205.741           0.000       -2438.250          20.400                                                            
E15  24070465.364           0.000       -1232.600          23.700                                                            
> 2019 09 03 07 35  4.4307436  0 17
G10  23878158.995           0.000        3480.750          18.400                                                            
G16  20646636.431           0.000        1191.541          35.700                                                            
G20  21985544.624           0.000        2567.250          22.300                                                            
G21  21041861.522           0.000       -1204.250          16.400                                                            
G26  20422627.309           0.000        -768.850          26.500    20420288.329           0.000        -572.400          24.000
G27  22382754.042           0.000        2532.350          24.100    22380413.262           0.000        1901.800          25.500
G31  24893482.301           0.000       -3356.350          23.300                                                            
R18  19738639.124           0.000         630.277          30.300                                                            
R16  19966050.291           0.000         -37.186          28.500                                                            
R01  23230881.895           0.000       -1301.850          18.600                                                            
R17  20552559.159           0.000       -2294.250          16.300                                                            
C27  23227232.222           0.000        1949.300          25.700                                                            
E13  23433045.440           0.000         723.938          35.000    23430919.312           0.000         540.120          33.300
E21  24063075.180           0.000         276.632          31.500    24060949.951           0.000         206.434          34.800
E26  25758140.710           0.000        2411.649          30.100    25756018.479           0.000        1800.300          26.700
E27  24666669.820           0.000       -2438.250          20.400                                                            
E15  24070779.546           0.000       -1232.600          23.700                                                            
