     3.03           OBSERVATION DATA    M: Mixed            RINEX VERSION / TYPE
Geo++ RINEX Logger  Geo++               20190903 073432 UTC PGM / RUN BY / DATE
************************************************************COMMENT
This file was generated by the Geo++ RINEX Logger App       COMMENT
for Android devices (Version 2.1.3). If you encounter       COMMENT
any issues, please send an email to android@geopp.de        COMMENT
************************************************************COMMENT
GTER                                                        MARKER NAME
GEODETIC                                                    MARKER TYPE
GTER                GTER                                    OBSERVER / AGENCY
unknown             Xiaomi              MI 9                REC # / TYPE / VERS
unknown             MI 9                                    ANT # / TYPE
  4508580.6405   708390.8246  4440702.1621                  APPROX POSITION XYZ
        0.0000        0.0000        0.0000                  ANTENNA: DELTA H/E/N
G    8 C1C L1C D1C S1C C5Q L5Q D5Q S5Q                      SYS / # / OBS TYPES
R    4 C1C L1C D1C S1C                                      SYS / # / OBS TYPES
E   12 C1B L1B D1B S1B C1C L1C D1C S1C C5Q L5Q D5Q S5Q      SYS / # / OBS TYPES
C    4 C2I L2I D2I S2I                                      SYS / # / OBS TYPES
J    8 C1C L1C D1C S1C C5Q L5Q D5Q S5Q                      SYS / # / OBS TYPES
  2019     9     3     7    34   50.4310000     GPS         TIME OF FIRST OBS
 24 R01  1 R02 -4 R03  5 R04  6 R05  1 R06 -4 R07  5 R08  6 GLONASS SLOT / FRQ #
    R09 -2 R10 -7 R11  0 R12 -1 R13 -2 R14 -7 R15  0 R16 -1 GLONASS SLOT / FRQ #
    R17  4 R18 -3 R19  3 R20  2 R21  4 R22 -3 R23  3 R24  2 GLONASS SLOT / FRQ #
G L1C                                                       SYS / PHASE SHIFT
G L5Q -0.25000                                              SYS / PHASE SHIFT
R L1C                                                       SYS / PHASE SHIFT
E L1B                                                       SYS / PHASE SHIFT
E L1C +0.50000                                              SYS / PHASE SHIFT
E L5Q -0.25000                                              SYS / PHASE SHIFT
C L2I                                                       SYS / PHASE SHIFT
J L1C                                                       SYS / PHASE SHIFT
J L5Q -0.25000                                              SYS / PHASE SHIFT
 C1C    0.000 C1P    0.000 C2C    0.000 C2P    0.000        GLONASS COD/PHS/BIS
                                                            END OF HEADER
> 2019  9  3  7 34 50.4310000  0 19
C27  23309366.980                        1957.900          26.800  
E01  27336666.139                        2601.300          16.500                                                                  
E13  23511876.186                         734.788          38.900                                                                    23509750.057                         548.001          31.000  
E15  24145381.119                       -1658.700          15.100                                                                    24143251.094                       -1229.250          24.400  
E21  24140713.051                         289.550          27.700                                                                    24138592.919                         216.310          31.800  
E26  25841467.743                        2420.033          31.700                                                                    25839345.212                        1807.297          32.700  
G10  23964260.307                        3486.150          16.500  
G16  20726716.711                        1206.242          39.500  
G20  22069297.362                        2579.850          23.800  
G21  21115574.811                       -1204.350          17.100  
G26  20497502.893                        -753.650          27.000  
G27  22466431.532                        2535.700          21.500  
G29  23848166.577                       -2847.400          21.300  
G31  24961419.488                       -3361.750          20.000  
R01  23304347.854                       -1295.250          20.500  
R15  21242250.315                       -3767.500          13.100  
R16  20042860.735                         -17.146          31.500  
R17  20623347.672                       -2298.250          18.600  
R18  19817201.855                         643.969          38.500  
> 2019  9  3  7 34 51.4310000  0 19
C27  23308991.742                        1957.700          28.500  
E01  27336171.283                        2601.300          16.500                                                                  
E13  23511734.786                         735.685          37.600                                                                    23509610.756                         549.764          31.100  
E15                                                                                                                                  24143565.678                       -1231.650          22.700  
E21  24140654.694                         290.450          28.700                                                                    24138536.960                         217.545          31.300  
E26  25841003.167                        2421.254          31.700                                                                    25838884.234                        1808.145          32.000  
G10  23963653.329                        3487.200          16.700  
G16  20726484.474                        1207.129          38.900  
G20  22068778.823                        2575.200          25.200  
G21  21115804.254                       -1204.350          17.100  
G26  20497625.310                        -749.500          27.000  
G27  22465938.176                        2542.800          20.800  
G29  23848753.073                       -2845.100          20.800  
G31  24962039.860                       -3347.650          19.200  
R01  23304590.189                       -1295.250          20.500  
R15  21242955.529                       -3767.500          13.100  
R16  20042866.233                         -16.473          30.200  
R17  20623777.377                       -2298.250          18.600  
R18  19817086.837                         644.889          37.700  
> 2019  9  3  7 34 52.4310000  0 19
C27  23308612.044                        1962.850          27.200  
E01  27335676.465                        2601.300          16.500                                                                  
E13  23511592.823                         738.997          38.000                                                                    23509470.292                         552.714          32.800  
E15                                                                                                                                  24143879.700                       -1231.650          22.700  
E21  24140608.365                         295.000          26.400                                                                    24138480.737                         220.934          32.500  
E26  25840546.722                        2424.944          31.800                                                                    25838423.592                        1811.610          32.800  
G10  23962989.727                        3487.200          16.700  
G16  20726257.071                        1210.011          38.400  
G20  22068281.007                        2581.700          23.700  
G21  21116033.434                       -1204.350          17.100  
G26  20497777.444                        -743.800          26.900  
G27  22465442.158                        2543.900          22.200  
G29  23849294.637                       -2845.100          20.800  
G31  24962677.958                       -3342.950          21.200  
R01  23304883.825                       -1296.350          19.100  
R15  21243660.780                       -3767.500          13.100  
R16  20042873.567                         -13.982          30.500  
R17  20624206.819                       -2298.250          18.600  
R18  19816951.470                         648.129          36.500  
> 2019  9  3  7 34 53.4310000  0 19
C27  23308238.864                        1961.600          27.100  
E01  27335180.970                        2601.300          16.500                                                                  
E13  23511453.482                         736.513          37.900                                                                    23509330.651                         550.658          33.100  
E15                                                                                                                                  24144194.844                       -1229.500          22.200  
E21  24140548.468                         290.450          27.300                                                                    24138425.638                         218.165          32.100  
E26  25840083.005                        2422.175          31.500                                                                    25837961.674                        1809.923          32.800  
G10  23962326.049                        3487.200          16.700  
G16  20726025.094                        1207.119          38.700  
G20  22067776.519                        2576.900          25.500  
G21  21116262.238                       -1204.350          17.100  
G26  20497923.205                        -750.950          27.700  
G27  22464963.752                        2542.900          24.100  
G29  23849835.825                       -2845.100          20.800  
G31  24963313.880                       -3342.950          21.200  
R01  23305072.456                       -1290.900          21.000  
R15  21244365.654                       -3767.500          13.100  
R16  20042883.523                         -17.134          31.000  
R17  20624636.184                       -2298.250          18.600  
R18  19816831.615                         645.345          37.600  
> 2019  9  3  7 34 54.4310000  0 18
C27  23307866.537                        1952.400          26.200  
E01  27334686.028                        2601.300          16.500                                                                  
E13  23511314.093                         733.728          36.900                                                                    23509191.263                         548.014          34.100  
E15                                                                                                                                  24144508.442                       -1237.650          23.300  
E21  24140498.718                         285.500          23.400                                                                    24138371.091                         215.454          33.100  
E26  25839620.140                        2419.302          31.500                                                                    25837501.207                        1807.233          34.000  
G10  23961662.324                        3487.200          16.700  
G16  20725795.767                        1203.659          37.600  
G20  22067284.574                        2577.200          26.000  
G21  21116491.594                       -1204.350          17.100  
G26  20498065.322                        -753.855          28.500  
G27  22464493.092                        2536.500          23.300  
G31  24963929.069                       -3346.150          18.800  
R01  23305338.687                       -1301.050          21.900  
R15  21245070.481                       -3767.500          13.100  
R16  20042885.636                         -20.895          30.400  
R17  20625087.086                       -2293.850          16.100  
R18  19816732.099                         641.925          35.900  
> 2019  9  3  7 34 55.4310000  0 18
C27  23307491.209                        1954.350          27.500  
E01  27334191.082                        2601.300          16.500                                                                  
E13  23511172.603                         729.610          37.000                                                                    23509051.271                         544.789          32.600  
E15                                                                                                                                  24144826.833                       -1240.450          24.100  
E21  24140438.171                         285.300          26.600                                                                    24138315.641                         212.318          31.400  
E26  25839163.268                        2415.593          30.700                                                                    25837041.038                        1804.012          34.100  
G10  23961012.385                        3480.950          16.900  
G16  20725565.239                        1200.008          38.000  
G20  22066813.312                        2570.250          24.900  
G21  21116720.647                       -1204.350          17.100  
G26  20498221.226                        -758.500          28.000  
G27  22464024.528                        2533.150          24.200  
G31  24964565.840                       -3346.150          18.800  
R01  23305582.130                       -1301.050          21.900  
R15  21245775.605                       -3767.500          13.100  
R16  20042866.761                         -25.616          30.500  
R17  20625515.801                       -2293.850          16.100  
R18  19816598.403                         638.052          36.300  
> 2019  9  3  7 34 56.4310000  0 18
C27  23307108.499                        1951.500          26.500  
E01  27333696.250                        2601.300          16.500                                                                  
E13  23511037.821                         728.421          36.100                                                                    23508913.192                         543.904          30.700  
E15                                                                                                                                  24145143.239                       -1234.650          24.600  
E21  24140378.038                         281.050          25.500                                                                    24138261.803                         211.288          29.900  
E26  25838702.912                        2414.713          30.400                                                                    25836581.881                        1802.836          34.200  
G10  23960350.269                        3480.950          16.900  
G16  20725340.819                        1198.259          36.700  
G20  22066322.677                        2572.650          24.400  
G21  21116909.342                       -1204.250          16.400  
G26  20498352.960                        -758.400          27.500  
G27  22463512.308                        2534.950          23.800  
G31  24965202.724                       -3346.150          18.800  
R01  23305870.356                       -1302.450          18.700  
R15  21246480.841                       -3767.500          13.100  
R16  20042867.186                         -27.450          30.000  
R17  20625944.630                       -2293.850          16.100  
R18  19816480.110                         636.517          35.400  
> 2019  9  3  7 34 57.4310000  0 18
C27  23306735.338                        1955.050          27.300  
E01  27333201.374                        2601.300          16.500                                                                  
E13  23510895.501                         730.004          37.700                                                                    23508774.470                         545.666          30.100  
E15                                                                                                                                  24145458.103                       -1237.400          24.900  
E21  24140320.559                         286.900          27.500                                                                    24138208.222                         212.178          32.200  
E26  25838243.712                        2416.470          31.300                                                                    25836122.680                        1804.778          32.500  
G10  23959687.809                        3480.950          16.900  
G16  20725113.958                        1199.769          38.700  
G20  22065806.815                        2570.650          25.500  
G21  21117138.765                       -1204.250          16.400  
G26  20498504.136                        -758.050          28.400  
G27  22463049.510                        2538.300          23.600  
G31  24965861.150                       -3357.650          18.500  
R01  23306114.168                       -1302.450          18.700  
R15  21247186.035                       -3767.500          13.100  
R16  20042894.848                         -26.091          31.900  
R17  20626423.480                       -2302.800          17.400  
R18  19816360.575                         638.103          37.300  
> 2019  9  3  7 34 58.4310000  0 17
C27  23306361.490                        1954.500          26.800  
E13  23510759.389                         730.936          39.200                                                                    23508635.659                         546.352          31.800  
E15                                                                                                                                  24145776.176                       -1232.600          23.700  
E21  24140265.990                         283.850          27.800                                                                    24138155.151                         213.073          32.200  
E26  25837783.523                        2417.468          32.500                                                                    25835661.892                        1804.930          31.300  
G10  23959014.468                        3480.750          18.400  
G16  20724884.609                        1200.013          39.900  
G20  22065319.046                        2571.650          26.400  
G21  21117367.799                       -1204.250          16.400  
G26  20498643.533                        -759.100          28.200  
G27  22462571.634                        2534.800          25.200  
G31  24966513.491                       -3349.400          21.700  
R01  23306326.714                       -1306.700          20.500  
R15  21247890.840                       -3767.500          13.100  
R16  20042884.049                         -26.020          31.900  
R17  20626853.975                       -2302.800          17.400  
R18  19816247.246                         638.774          38.400  
> 2019  9  3  7 34 59.4310000  0 17
C27  23305989.525                        1954.350          28.000  
E13  23510622.161                         729.887          39.900                                                                    23508496.033                         545.023          32.600  
E15                                                                                                                                  24146090.136                       -1232.600          23.700  
E21  24140225.296                         283.784          33.800                                                                    24138100.367                         211.648          32.800  
E26  25837320.121                        2416.357          32.200                                                                    25835202.987                        1803.998          30.700  
G10  23958352.004                        3480.750          18.400  
G16  20724658.044                        1199.061          40.100  
G20  22064867.336                        2570.850          26.100  
G21  21117596.918                       -1204.250          16.400  
G26  20498767.125                        -761.650          22.900  
G27  22462066.561                        2535.000          24.200  
G31  24967145.831                       -3353.200          25.300  
R01  23306567.525                       -1305.750          24.400  
R15  21248595.729                       -3767.500          13.100  
R16  20042891.621                         -27.428          35.400  
R17  20627283.954                       -2302.800          17.400  
R18  19816124.708                         637.693          38.700  
> 2019  9  3  7 35  0.4310000  0 18
C27  23305611.273                        1957.650          27.200  
E13  23510483.144                         733.947          39.000                                                                    23508354.317                         548.786          32.900  
E15                                                                                                                                  24146404.404                       -1232.600          23.700  
E21  24140168.721                         287.760          35.600                                                                    24138044.392                         215.582          28.800  
E26  25836867.821                        2422.250          28.700                                                                    25834740.794                        1809.150          29.000  
E27  24741693.894                       -2439.000          18.400                                                                  
G10  23957689.549                        3480.750          18.400  
G16  20724427.590                        1203.186          40.200  
G20  22064368.568                        2575.500          26.600  
G21  21117826.046                       -1204.250          16.400  
G26  20498912.011                        -761.650          22.900  
G27  22461584.281                        2535.000          24.200  
G31  24967803.062                       -3350.700          25.200  
R01  23306779.565                       -1301.500          24.500  
R15  21249300.927                       -3767.500          13.100  
R16  20042891.407                         -24.001          36.300  
R17  20627714.243                       -2302.800          17.400  
R18  19815991.387                         642.121          39.100  
> 2019  9  3  7 35  1.4310000  0 18
C27  23305230.601                        1954.200          26.900  
E13  23510345.903                         732.909          37.200                                                                    23508217.676                         547.650          36.600  
E15                                                                                                                                  24146718.352                       -1232.600          23.700  
E21  24140118.121                         286.884          35.500                                                                    24137993.192                         214.392          33.500  
E26  25836400.809                        2419.750          28.400                                                                    25834279.777                        1807.318          29.500  
E27  24742158.037                       -2439.000          18.400                                                                  
G10  23957027.372                        3480.750          18.400  
G16  20724200.711                        1201.521          38.500  
G20  22063875.174                        2575.800          24.900  
G21  21118055.151                       -1204.250          16.400  
G26  20499057.175                        -761.650          22.900    20496734.383                        -560.100          23.200  
G27  22461108.275                        2547.200          20.300  
G31  24968434.190                       -3351.000          23.300  
R01  23307023.061                       -1301.500          24.500  
R15  21250006.104                       -3767.500          13.100  
R16  20042900.466                         -25.749          35.100  
R17  20628154.403                       -2294.250          16.300  
R18  19815875.432                         640.636          38.200  
> 2019  9  3  7 35  2.4310000  0 17
C27  23304849.631                        1957.350          25.600  
E13  23510200.269                         730.564          32.700                                                                    23508078.638                         546.001          42.900  
E15                                                                                                                                  24147032.600                       -1232.600          23.700  
E21  24140063.624                         283.858          32.900                                                                    24137938.995                         212.447          42.300  
E26  25835933.798                        2417.985          30.800                                                                    25833821.460                        1805.353          30.500  
E27  24742623.081                       -2438.250          20.400                                                                  
G10  23956364.896                        3480.750          18.400  
G16  20723967.238                        1198.867          37.200  
G20  22063403.066                        2567.250          22.300  
G21  21118284.558                       -1204.250          16.400  
G26                                                                  20496877.449                        -567.241          28.500  
G27  22460616.081                        2538.100          27.100    22458263.910                        1901.800          25.500  
G31  24969086.304                       -3356.350          23.300  
R01  23307276.451                       -1301.850          18.600  
R16  20042920.617                         -28.684          34.800  
R17  20628583.171                       -2294.250          16.300  
R18  19815763.075                         638.158          38.200  
> 2019  9  3  7 35  3.4310000  0 17
C27  23304478.210                        1954.850          26.400  
E13  23510066.883                         728.412          34.300                                                                    23507938.657                         544.420          36.800  
E15                                                                                                                                  24147346.804                       -1232.600          23.700  
E21  24140009.983                         281.601          33.500                                                                    24137885.354                         211.151          38.100  
E26  25835478.734                        2415.449          29.600                                                                    25833361.900                        1804.303          30.100  
E27  24743087.181                       -2438.250          20.400                                                                  
G10  23955702.676                        3480.750          18.400  
G16  20723746.613                        1196.250          35.800  
G20  22062914.426                        2567.250          22.300  
G21  21118513.621                       -1204.250          16.400  
G26  20499378.939                        -759.350          22.700    20497024.070                        -572.400          24.000  
G27  22460117.548                        2532.350          24.100    22457779.467                        1901.800          25.500  
G31  24969725.183                       -3356.350          23.300  
R01  23307519.904                       -1301.850          18.600  
R16  20042901.752                         -31.745          33.200  
R17  20629011.896                       -2294.250          16.300  
R18  19815647.077                         635.501          35.000  
> 2019  9  3  7 35  4.4310000  0 17
C27  23304113.562                        1949.300          25.700  
E13  23509926.780                         723.938          35.000                                                                    23507800.652                         540.120          33.300  
E15                                                                                                                                  24147660.886                       -1232.600          23.700  
E21  24139956.520                         276.632          31.500                                                                    24137831.291                         206.434          34.800  
E26  25835022.050                        2411.649          30.100                                                                    25832899.819                        1800.300          26.700  
E27  24743551.160                       -2438.250          20.400                                                                  
G10  23955040.334                        3480.750          18.400  
G16  20723517.771                        1191.541          35.700  
G20  22062425.964                        2567.250          22.300  
G21  21118742.862                       -1204.250          16.400  
G26  20499508.649                        -768.850          26.500    20497169.669                        -572.400          24.000  
G27  22459635.382                        2532.350          24.100    22457294.602                        1901.800          25.500  
G31  24970363.641                       -3356.350          23.300  
R01  23307763.235                       -1301.850          18.600  
R16  20042931.631                         -37.186          28.500  
R17  20629440.499                       -2294.250          16.300  
R18  19815520.464                         630.277          30.300  
> 2019  9  3  7 35  5.4310000  0 17
C27  23303726.123                        1955.800          25.600  
E13  23509790.567                         725.645          34.600                                                                    23507665.039                         542.896          35.500  
E15                                                                                                                                  24147974.662                       -1232.600          23.700  
E21  24139900.051                         279.050          28.200                                                                    24137781.418                         209.055          34.600  
E26  25834565.659                        2415.150          26.400                                                                    25832443.428                        1803.350          26.600  
E27  24744014.832                       -2438.250          20.400                                                                  
G10  23954377.686                        3480.750          18.400  
G16  20723288.622                        1193.351          35.400  
G20  22061937.195                        2567.250          22.300  
G21  21118971.797                       -1204.250          16.400  
G26  20499654.841                        -768.850          26.500    20497315.560                        -572.400          24.000  
G27  22459153.508                        2532.350          24.100  
G31  24971002.391                       -3356.350          23.300  
R01  23308006.859                       -1301.850          18.600  
R16  20042918.932                         -35.425          29.000  
R17  20629869.095                       -2294.250          16.300  
R18  19815401.639                         632.843          31.600  
> 2019  9  3  7 35  6.4310000  0 17
C27  23303350.708                        1955.800          25.600  
E13  23509649.890                         729.548          34.100                                                                    23507525.561                         544.853          36.600  
E15                                                                                                                                  24148289.069                       -1232.600          23.700  
E21  24139845.415                         282.250          28.900                                                                    24137727.681                         210.471          34.700  
E26  25834098.808                        2413.050          25.300                                                                    25831985.571                        1803.850          26.700  
E27  24744479.136                       -2438.250          20.400                                                                  
G10  23953715.670                        3480.750          18.400  
G16  20723061.305                        1196.398          34.300  
G20  22061449.059                        2567.250          22.300  
G21  21119201.063                       -1204.250          16.400  
G26  20499820.851                        -761.100          20.500  
G27  22458671.667                        2532.350          24.100    22456341.680                        1895.750          25.600  
G31  24971641.175                       -3356.350          23.300  
R01  23308250.516                       -1301.850          18.600  
R16  20042923.954                         -32.736          30.800  
R17  20630298.324                       -2294.250          16.300  
R18  19815295.438                         635.763          32.300  
> 2019  9  3  7 35  7.4310000  0 17
C27  23302975.083                        1955.800          25.600  
E13  23509511.101                         726.992          37.400                                                                    23507385.273                         543.395          35.200  
E15                                                                                                                                  24148603.267                       -1232.600          23.700  
E21  24139794.765                         279.327          33.500                                                                    24137671.635                         208.821          30.900  
E26  25833639.241                        2407.400          25.300                                                                    25831524.505                        1804.280          31.900  
E27  24744943.229                       -2438.250          20.400                                                                  
G10  23953053.143                        3480.750          18.400  
G16  20722834.077                        1193.513          38.700  
G20  22060960.412                        2567.250          22.300  
G21  21119430.419                       -1204.250          16.400  
G26  20499961.469                        -763.700          27.300    20497603.601                        -573.400          25.200  
G27  22458228.889                        2535.900          18.700    22455856.631                        1889.750          24.700  
G31  24972280.047                       -3356.350          23.300  
R01  23308493.962                       -1301.850          18.600  
R16  20042940.158                         -36.224          31.900  
R17  20630727.042                       -2294.250          16.300  
R18  19815165.044                         633.142          36.800  
> 2019  9  3  7 35  8.4310000  0 17
C27  23302599.390                        1955.800          25.600  
E13  23509371.045                         724.814          36.900                                                                    23507242.819                         541.772          29.000  
E15                                                                                                                                  24148917.397                       -1232.600          23.700  
E21  24139742.248                         276.676          32.200                                                                    24137622.116                         207.430          28.800  
E26  25833180.206                        2413.650          25.400                                                                    25831066.369                        1801.679          29.800  
E27  24745406.955                       -2438.250          20.400                                                                  
G10  23952390.849                        3480.750          18.400  
G16  20722607.382                        1191.170          39.400  
G20  22060470.198                        2564.600          16.400  
G21  21119659.408                       -1204.250          16.400  
G26  20500089.428                        -769.900          28.300    20497749.547                        -572.250          24.700  
G27  22457726.084                        2531.450          22.200    22455375.711                        1893.100          24.100  
G31  24972918.552                       -3356.350          23.300  
R01  23308737.641                       -1301.850          18.600  
R16  20042952.097                         -38.763          33.200  
R17  20631155.692                       -2294.250          16.300  
R18  19815052.269                         630.824          36.700  
