     3.03           OBSERVATION DATA    M: Mixed            RINEX VERSION / TYPE
Geo++ RINEX Logger  Geo++               20190906 110657 UTC PGM / RUN BY / DATE
************************************************************COMMENT
This file was generated by the Geo++ RINEX Logger App       COMMENT
for Android devices (Version 2.1.3). If you encounter       COMMENT
any issues, please send an email to android@geopp.de        COMMENT
************************************************************COMMENT
GTER                                                        MARKER NAME
GEODETIC                                                    MARKER TYPE
GTER                GTER                                    OBSERVER / AGENCY
unknown             Xiaomi              MI 9                REC # / TYPE / VERS
unknown             MI 9                                    ANT # / TYPE
  4508777.3274   711171.9693  4440062.5820                  APPROX POSITION XYZ
        0.0000        0.0000        0.0000                  ANTENNA: DELTA H/E/N
G    8 C1C L1C D1C S1C C5Q L5Q D5Q S5Q                      SYS / # / OBS TYPES
R    4 C1C L1C D1C S1C                                      SYS / # / OBS TYPES
E   12 C1B L1B D1B S1B C1C L1C D1C S1C C5Q L5Q D5Q S5Q      SYS / # / OBS TYPES
C    4 C2I L2I D2I S2I                                      SYS / # / OBS TYPES
J    8 C1C L1C D1C S1C C5Q L5Q D5Q S5Q                      SYS / # / OBS TYPES
  2019     9     6    11     7   15.4480000     GPS         TIME OF FIRST OBS
 24 R01  1 R02 -4 R03  5 R04  6 R05  1 R06 -4 R07  5 R08  6 GLONASS SLOT / FRQ #
    R09 -2 R10 -7 R11  0 R12 -1 R13 -2 R14 -7 R15  0 R16 -1 GLONASS SLOT / FRQ #
    R17  4 R18 -3 R19  3 R20  2 R21  4 R22 -3 R23  3 R24  2 GLONASS SLOT / FRQ #
G L1C                                                       SYS / PHASE SHIFT
G L5Q -0.25000                                              SYS / PHASE SHIFT
R L1C                                                       SYS / PHASE SHIFT
E L1B                                                       SYS / PHASE SHIFT
E L1C +0.50000                                              SYS / PHASE SHIFT
E L5Q -0.25000                                              SYS / PHASE SHIFT
C L2I                                                       SYS / PHASE SHIFT
J L1C                                                       SYS / PHASE SHIFT
J L5Q -0.25000                                              SYS / PHASE SHIFT
 C1C    0.000 C1P    0.000 C2C    0.000 C2P    0.000        GLONASS COD/PHS/BIS
                                                            END OF HEADER
> 2019  9  6 11  7 15.4480000  0 26
C09  38729909.177                         393.000          25.400  
C11  21955671.840                        1103.769          31.300  
C12  24764573.078                       -2732.706          34.000  
C14  23058371.757                        2523.598          38.400  
E07  25197734.207                        -729.087          30.600                                                                    25195607.479                        -547.100          25.000  
E12  25018874.129                        2308.500          15.700                                                                    25016732.412                        1725.750          18.500  
E19  27487402.702                        3190.300          23.300                                                                    27485279.572                        2382.000          25.200  
E26  23423119.647                       -1461.696          34.600                                                                  
E31  27298914.490                       -2364.850          17.600                                                                    27296740.395                       -1768.779          28.000  
G01  22116499.401                        2375.650          27.300    22114154.725                        1773.071          35.700  
G03  24756066.767                        3640.750          22.000  
G08  20507875.429                        -284.990          41.300    20505528.953                        -212.641          31.600  
G10  22673481.111                       -2802.023          32.200    22671135.835                       -2092.650          24.700  
G11  21593308.799                        2609.700          26.500  
G14  23184167.970                        2449.762          36.100  
G18  20501126.801                        1436.700          34.800  
G22  22989309.468                        2916.123          35.300  
G27  21882442.136                       -2731.597          42.400    21880096.560                       -2039.835          35.900  
G32  22435000.708                        1298.041          39.200    22432655.131                         969.506          32.700  
R01  24191105.781                        4545.650          21.800  
R07  19784792.808                        -667.250          25.200  
R08  20676047.006                        3235.710          32.600  
R14  23478864.556                        -303.850          22.700  
R21  23509745.877                       -3362.950          10.900  
R22  19871632.490                        -874.834          29.400  
R23  20964599.045                        2804.450          22.000  
> 2019  9  6 11  7 16.4480000  0 26
C09  38729854.865                         391.500          24.900  
C11  21955459.837                        1103.252          31.000  
C12  24765095.267                       -2732.496          34.000  
C14  23057885.744                        2523.351          38.200  
E07  25197869.064                        -729.218          31.900                                                                    25195745.934                        -546.050          22.700  
E12  25018435.183                        2308.500          15.700                                                                    25016292.866                        1725.750          18.500  
E19  27486795.873                        3190.300          23.300                                                                    27484670.045                        2384.350          23.100  
E26  23423399.004                       -1461.581          34.400                                                                  
E31  27299364.729                       -2364.850          17.600                                                                    27297192.732                       -1770.320          28.000  
G01  22116040.669                        2372.950          27.400    22113703.487                        1773.210          35.500  
G03  24755374.197                        3640.750          22.000  
G08  20507930.541                        -285.224          41.700    20505583.466                        -212.805          31.500  
G10  22674008.696                       -2802.320          31.900    22671670.015                       -2090.450          26.100  
G11  21592832.978                        2610.500          26.800  
G14  23183698.145                        2449.609          35.900  
G18  20500850.043                        1436.085          34.600  
G22  22988750.905                        2915.894          35.900  
G27  21882964.025                       -2731.853          42.700    21880617.250                       -2039.919          35.700  
G32  22434751.530                        1297.702          38.900    22432408.353                         969.158          33.300  
R01  24190316.978                        4553.600          19.400  
R07  19784921.669                        -668.150          25.500  
R08  20675448.870                        3235.456          32.900  
R14  23478921.766                        -303.850          22.700  
R21  23510374.492                       -3362.950          10.900  
R22  19871799.125                        -874.970          28.800  
R23  20964075.258                        2804.450          22.000  
> 2019  9  6 11  7 17.4480000  0 26
C09  38729762.816                         400.500          23.500  
C11  21955249.370                        1107.897          29.400  
C12  24765625.887                       -2728.322          33.200  
C14  23057401.566                        2527.368          37.600  
E07  25198006.356                        -725.917          31.200                                                                    25195883.526                        -536.200          24.000  
E12  25017995.675                        2308.500          15.700                                                                    25015853.058                        1725.750          18.500  
E19  27486198.673                        3192.450          23.500                                                                    27484068.048                        2382.750          24.500  
E26  23423684.094                       -1457.805          33.100                                                                  
E31  27299814.704                       -2364.850          17.600                                                                    27297643.607                       -1765.762          28.200  
G01  22115587.070                        2377.300          26.500    22113250.488                        1776.252          36.400  
G03  24754681.363                        3640.750          22.000  
G08  20507982.392                        -281.394          40.500    20505638.015                        -210.167          31.800  
G10  22674543.513                       -2798.080          31.300    22672207.230                       -2086.750          24.700  
G11  21592320.920                        2612.550          27.300  
G14  23183231.955                        2453.490          35.800  
G18  20500576.319                        1440.135          33.300  
G22  22988195.376                        2919.991          35.100  
G27  21883484.751                       -2727.858          41.600    21881136.177                       -2037.050          36.000  
G32  22434506.887                        1301.598          38.400    22432159.512                         972.193          33.900  
R01  24189465.254                        4553.600          19.400  
R07  19785009.196                        -666.150          24.200  
R08  20674848.673                        3239.344          33.100  
R14  23478978.714                        -303.850          22.700  
R21  23511003.144                       -3362.950          10.900  
R22  19871952.306                        -871.051          29.500  
R23  20963550.908                        2804.450          22.000  
> 2019  9  6 11  7 18.4480000  0 26
C09  38729681.179                         399.400          26.100  
C11  21955032.527                        1109.783          29.900  
C12  24766145.334                       -2726.036          34.400  
C14  23056915.809                        2529.697          38.400  
E07  25198145.966                        -722.990          31.700                                                                    25196022.536                        -544.300          25.300  
E12  25017556.385                        2308.500          15.700                                                                    25015413.169                        1725.750          18.500  
E19  27485590.901                        3192.450          23.500                                                                    27483453.980                        2389.100          23.100  
E26  23423954.113                       -1455.441          34.400                                                                  
E31  27300264.599                       -2364.850          17.600                                                                    27298090.505                       -1764.891          28.500  
G01  22115136.089                        2381.322          28.900    22112798.008                        1778.057          36.700  
G03  24753988.450                        3640.750          22.000  
G08  20508035.062                        -279.421          41.800    20505690.385                        -208.806          32.800  
G10  22675081.547                       -2795.567          31.000    22672733.872                       -2088.700          25.300  
G11  21591845.056                        2616.000          27.800  
G14  23182767.184                        2455.850          36.700  
G18  20500301.616                        1442.368          34.300  
G22  22987638.868                        2922.440          35.300  
G27  21884003.599                       -2725.530          43.000    21881654.725                       -2035.327          37.000  
G32  22434257.366                        1303.505          39.300    22431912.390                         973.409          33.900  
R01  24188573.279                        4562.400          20.300  
R07  19785161.097                        -662.850          24.700  
R08  20674245.397                        3241.649          33.600  
R14  23479035.581                        -303.850          22.700  
R21  23511631.416                       -3362.950          10.900  
R22  19872104.508                        -869.045          29.600  
R23  20963026.478                        2804.450          22.000  
> 2019  9  6 11  7 19.4480000  0 26
C09  38729601.790                         401.550          25.900  
C11  21954819.430                        1112.745          30.100  
C12  24766673.324                       -2723.608          33.100  
C14  23056432.299                        2532.161          39.300  
E07  25198281.827                        -721.013          31.900                                                                    25196158.397                        -537.100          25.200  
E12  25017117.245                        2308.500          15.700                                                                    25014968.633                        1732.100          18.300  
E19  27484958.694                        3201.000          22.400                                                                    27482847.256                        2395.050          25.900  
E26  23424231.777                       -1452.903          34.900                                                                  
E31  27300662.480                       -2364.200          17.800                                                                    27298542.347                       -1761.942          29.900  
G01  22114691.852                        2383.448          29.700    22112345.077                        1780.106          37.500  
G03  24753295.685                        3640.750          22.000  
G08  20508091.479                        -277.187          41.800    20505744.104                        -207.063          33.900  
G10  22675605.940                       -2793.101          31.800    22673267.558                       -2088.000          25.600  
G11  21591344.458                        2620.265          28.800  
G14  23182297.165                        2458.181          36.300  
G18  20500032.458                        1444.817          34.700  
G22  22987084.907                        2924.925          36.700  
G27  21884518.998                       -2723.143          42.200    21882174.321                       -2033.523          37.500  
G32  22434010.693                        1305.718          39.600    22431664.517                         975.190          35.000  
R01  24187762.395                        4558.650          23.700  
R07  19785246.894                        -663.050          23.700  
R08  20673619.186                        3243.756          34.800  
R14  23479095.595                        -320.200          15.100  
R21  23512265.532                       -3357.500          18.200  
R22  19872278.143                        -866.781          29.000  
R23  20962489.905                        2814.700          16.400  
> 2019  9  6 11  7 20.4480000  0 26
C09  38729553.951                         395.150          23.400  
C11  21954605.806                        1112.250          30.100  
C12  24767200.787                       -2727.400          28.600  
C14  23055946.763                        2526.488          37.600  
E07  25198418.361                        -725.827          30.100                                                                    25196296.430                        -545.350          26.500  
E12  25016677.578                        2308.500          15.700                                                                    25014536.160                        1721.400          24.000  
E19  27484353.541                        3195.650          22.100                                                                    27482239.405                        2383.200          24.600  
E26  23424511.011                       -1457.750          32.900                                                                  
E31  27301112.296                       -2364.200          17.800                                                                    27298989.766                       -1766.387          30.700  
G01  22114235.396                        2378.446          34.200    22111891.319                        1776.247          38.600  
G03  24752602.693                        3640.750          22.000  
G08  20508140.173                        -282.987          37.600    20505796.995                        -211.524          34.100  
G10  22676128.906                       -2794.900          26.400    22673798.019                       -2091.350          23.900  
G11  21590843.933                        2614.660          33.200  
G14  23181823.321                        2452.590          32.200  
G18  20499753.479                        1438.823          29.600  
G22  22986529.520                        2919.555          37.600  
G27  21885037.767                       -2728.548          36.000    21882691.891                       -2037.682          35.700  
G32  22433765.890                        1299.951          37.300    22431416.716                         970.835          34.400  
R01  24186828.970                        4551.450          23.200  
R07  19785430.794                        -659.650          20.200  
R08  20673020.329                        3237.944          33.600  
R14  23479155.382                        -320.200          15.100  
R21  23512892.826                       -3357.500          18.200  
R22  19872470.438                        -874.950          25.000  
R23  20961982.185                        2805.840          28.700  
> 2019  9  6 11  7 21.4480000  0 26
C09  38729464.840                         396.350          22.600  
C11  21954391.082                        1104.400          22.200  
C12  24767720.255                       -2731.339          30.700  
C14  23055462.526                        2523.673          37.500  
E07  25198566.686                        -729.272          30.300                                                                    25196434.562                        -545.000          27.000  
E12  25016225.418                        2316.650          17.700                                                                    25014097.791                        1721.400          24.000  
E19  27483750.586                        3187.900          22.700                                                                    27481630.454                        2387.300          24.200  
E26  23424784.650                       -1460.110          32.500                                                                  
E31  27301562.212                       -2364.200          17.800                                                                    27299441.181                       -1768.535          30.400  
G01  22113781.138                        2375.721          33.800    22111439.460                        1773.894          38.700  
G03  24751910.100                        3640.750          22.000  
G08  20508197.061                        -285.974          38.100    20505851.485                        -213.424          33.400  
G10  22676639.380                       -2802.050          24.700    22674331.877                       -2094.050          25.200  
G11  21590336.612                        2611.908          32.400  
G14  23181362.467                        2450.073          33.300  
G18  20499479.696                        1436.232          30.000  
G22  22985977.230                        2916.716          38.400  
G27  21885559.033                       -2731.764          34.700    21883212.558                       -2039.853          35.600  
G32  22433513.692                        1296.792          36.400    22431169.315                         968.625          35.000  
R01  24186006.267                        4553.800          21.200  
R07  19785554.236                        -659.650          20.200  
R08  20672416.474                        3234.897          33.600  
R14  23479215.868                        -320.200          15.100  
R21  23513520.519                       -3357.500          18.200  
R22  19872595.679                        -873.750          23.500  
R23  20961456.276                        2803.146          29.700  
> 2019  9  6 11  7 22.4480000  0 26
C09  38729371.917                         399.000          22.800  
C11  21954177.343                        1107.600          28.500  
C12  24768243.705                       -2728.798          33.000  
C14  23054975.976                        2526.482          39.600  
E07  25198697.708                        -726.370          31.300                                                                    25196571.880                        -538.950          23.800  
E12  25015784.136                        2316.650          17.700                                                                    25013658.908                        1721.400          24.000  
E19  27483159.408                        3195.100          24.400                                                                    27481021.888                        2384.300          26.300  
E26  23425062.570                       -1457.596          34.100                                                                  
E31  27302011.914                       -2364.200          17.800                                                                    27299891.182                       -1765.866          30.800  
G01  22113325.467                        2378.837          31.700    22110986.786                        1776.281          37.900  
G03  24751173.523                        3646.300          14.500  
G08  20508248.638                        -283.530          41.300    20505905.760                        -211.814          33.100  
G10  22677201.803                       -2798.328          29.500    22674867.020                       -2099.900          25.400  
G11  21589850.661                        2614.700          26.200  
G14  23180899.001                        2452.749          36.900  
G18  20499210.196                        1439.126          31.800  
G22  22985419.928                        2919.400          38.700  
G27  21886078.587                       -2728.943          40.900    21883731.511                       -2037.884          37.200  
G32  22433266.676                        1299.412          39.400    22430922.299                         970.572          34.800  
R01  24185161.165                        4561.100          24.500  
R07  19785694.252                        -670.000          23.100  
R08  20671819.001                        3237.141          35.100  
R14  23479275.539                        -320.200          15.100  
R21  23514147.698                       -3357.500          18.200  
R22  19872796.553                        -873.040          29.500  
R23  20960921.759                        2805.000          25.800  
> 2019  9  6 11  7 23.4480000  0 26
C09  38729285.810                         398.800          24.200  
C11  21953973.118                        1106.591          31.000  
C12  24768769.175                       -2728.228          34.600  
C14  23054490.545                        2527.161          39.500  
E07  25198833.447                        -726.293          31.800                                                                    25196712.116                        -547.550          23.000  
E12  25015343.675                        2316.650          17.700                                                                    25013220.545                        1721.400          24.000  
E19  27482545.067                        3196.250          24.800                                                                    27480414.442                        2386.150          25.700  
E26  23425340.411                       -1457.069          35.400                                                                  
E31  27302478.324                       -2361.500          20.200                                                                    27300341.104                       -1765.729          29.800  
G01  22112886.204                        2379.256          31.400    22110534.033                        1776.762          37.100  
G03  24750480.036                        3646.300          14.500  
G08  20508305.233                        -283.267          42.600    20505960.256                        -211.459          32.600  
G10  22677738.066                       -2797.590          30.600    22675399.085                       -2089.223          27.600  
G11  21589357.736                        2617.850          22.600  
G14  23180433.057                        2453.263          37.500  
G18  20498936.419                        1439.454          33.300  
G22  22984869.443                        2919.963          39.000  
G27  21886594.763                       -2728.491          42.800    21884251.285                       -2037.616          37.800  
G32  22433020.480                        1299.788          40.100    22430675.503                         970.555          34.900  
R01  24184272.813                        4560.150          25.200  
R07  19785828.493                        -669.750          24.200  
R08  20671199.263                        3237.367          34.400  
R14  23479335.731                        -320.200          15.100  
R21  23514775.397                       -3357.500          18.200  
R22  19872914.005                        -872.118          31.200  
R23  20960397.656                        2805.000          25.800  
> 2019  9  6 11  7 24.4480000  0 26
C09  38729238.676                         398.900          23.100  
C11  21953759.899                        1108.700          29.200  
C12  24769285.950                       -2728.123          33.000  
C14  23054004.815                        2526.880          38.600  
E07  25198971.286                        -726.467          30.800                                                                    25196849.354                        -540.550          26.400  
E12  25014902.614                        2316.650          17.700                                                                    25012781.882                        1721.400          24.000  
E19  27481951.111                        3192.800          22.600                                                                    27479805.797                        2385.600          26.000  
E26  23425616.753                       -1457.045          34.200                                                                  
E31  27302947.133                       -2361.500          23.200                                                                    27300791.026                       -1765.978          29.900  
G01  22112428.055                        2378.763          28.800    22110081.579                        1776.481          36.900  
G03  24749785.950                        3646.300          14.500  
G08  20508360.628                        -283.799          40.900    20506013.553                        -211.868          32.600  
G10  22678269.531                       -2798.304          30.400    22675929.051                       -2091.000          25.400  
G11  21588830.334                        2616.350          23.700  
G14  23179962.616                        2452.841          36.300  
G18  20498659.943                        1439.271          32.100  
G22  22984307.565                        2919.834          36.300  
G27  21887116.035                       -2728.731          42.100    21884770.459                       -2037.700          36.800  
G32  22432770.087                        1299.238          38.100    22430427.209                         970.329          34.000  
R01  24183494.785                        4558.850          23.400  
R07  19785970.828                        -669.550          23.700  
R08  20670610.704                        3236.979          34.300  
R14  23479328.769                        -314.300          16.300  
R21  23515302.665                       -3362.400          16.100  
R22  19873104.306                        -872.810          30.000  
R23  20959873.252                        2805.000          25.800  
> 2019  9  6 11  7 25.4480000  0 26
C09  38729162.087                         398.900          23.100  
C11  21953545.705                        1109.600          27.900  
C12  24769816.741                       -2724.541          33.100  
C14  23053519.009                        2530.208          38.900  
E07  25199116.243                        -723.578          31.600                                                                    25196987.117                        -540.550          26.400  
E12  25014461.777                        2316.650          17.700                                                                    25012342.844                        1721.400          24.000  
E19  27481343.590                        3192.800          22.600                                                                    27479197.676                        2389.000          23.500  
E26  23425891.221                       -1453.651          34.300                                                                  
E31  27303396.380                       -2361.500          23.200                                                                    27301238.474                       -1762.301          28.200  
G01  22111956.939                        2382.458          28.500    22109628.151                        1779.175          36.500  
G03  24749092.088                        3646.300          14.500  
G08  20508412.050                        -280.674          40.600    20506066.774                        -209.368          32.600  
G10  22678810.814                       -2795.050          30.700    22676462.540                       -2087.100          24.500  
G11  21588317.847                        2616.250          23.300  
G14  23179494.198                        2456.314          36.100  
G18  20498385.791                        1442.820          32.500  
G22  22983746.512                        2923.203          37.100  
G27  21887632.735                       -2725.501          42.300    21885289.258                       -2035.311          36.600  
G32  22432524.715                        1302.362          38.700    22430180.637                         972.609          34.100  
R01  24182579.077                        4561.950          24.100  
R07  19786014.156                        -665.000          21.100  
R08  20670000.485                        3240.357          34.200  
R14  23479387.686                        -314.300          16.300  
R21  23515930.888                       -3362.400          16.100  
R22  19873270.849                        -869.930          30.800  
R23  20959377.853                        2810.600          18.700  
> 2019  9  6 11  7 26.4480000  0 26
C09  38729067.908                         405.400          21.100  
C11  21953325.612                        1113.550          29.200  
C12  24770331.740                       -2721.544          32.100  
C14  23053032.401                        2533.191          38.200  
E07  25199249.906                        -720.068          29.800                                                                    25197127.975                        -537.850          22.400  
E12  25014021.037                        2316.650          17.700                                                                    25011892.511                        1727.150          18.500  
E19  27480707.685                        3202.850          22.800                                                                    27478590.851                        2395.350          22.700  
E26  23426168.784                       -1450.316          33.400                                                                  
E31  27303846.024                       -2361.500          23.200                                                                    27301689.317                       -1761.850          26.900  
G01  22111514.700                        2385.542          29.000    22109175.120                        1781.610          35.800  
G03  24748398.624                        3646.300          14.500  
G08  20508467.167                        -277.667          39.700    20506120.691                        -207.384          31.500  
G10  22679340.203                       -2791.125          30.800    22676992.528                       -2087.850          22.700  
G11  21587862.117                        2624.300          25.900  
G14  23179030.375                        2459.498          35.700  
G18  20498116.832                        1446.116          31.700  
G22  22983193.350                        2926.387          36.500  
G27  21888154.030                       -2722.248          40.700    21885807.854                       -2033.024          34.700  
G32  22432280.639                        1305.384          37.800    22429933.264                         974.409          32.500  
R01  24181761.498                        4564.150          23.500  
R07  19786125.334                        -662.600          21.300  
R08  20669402.654                        3243.318          34.400  
R14  23479446.701                        -314.300          16.300  
R21  23516559.508                       -3362.400          16.100  
R22  19873435.690                        -866.589          29.100  
R23  20958852.572                        2810.600          18.700  
> 2019  9  6 11  7 27.4480000  0 26
C09  38728989.735                         405.400          21.100  
C11  21953105.938                        1117.900          23.700  
C12  24770852.852                       -2717.750          28.800  
C14  23052545.312                        2536.747          37.700  
E07  25199389.682                        -717.600          29.000                                                                    25197262.355                        -542.150          22.800  
E12  25013580.116                        2316.650          17.700                                                                    25011452.189                        1727.150          18.500  
E19  27480105.776                        3206.150          24.500                                                                    27477978.748                        2397.750          23.800  
E26  23426446.166                       -1446.133          32.400                                                                  
E31  27304274.501                       -2362.800          18.900                                                                    27302138.480                       -1759.050          27.600  
G01  22111064.186                        2389.396          32.500    22108720.408                        1784.232          36.000  
G03  24747704.378                        3646.300          14.500  
G08  20508516.107                        -274.566          37.300    20506172.629                        -205.380          32.000  
G10  22679876.605                       -2788.400          28.300    22677524.433                       -2087.850          22.700  
G11  21587365.135                        2623.050          25.600  
G14  23178557.076                        2462.623          33.000  
G18  20497835.701                        1449.358          28.500  
G22  22982636.709                        2930.252          35.400  
G27  21888673.643                       -2718.988          38.900    21886325.069                       -2030.359          34.000  
G32  22432031.285                        1308.550          37.000    22429683.610                         977.154          32.000  
R01  24180885.878                        4566.350          22.900  
R07  19786248.922                        -662.600          21.300  
R08  20668794.748                        3246.629          34.300  
R14  23479505.533                        -314.300          16.300  
R21  23517187.647                       -3362.400          16.100  
R22  19873574.867                        -862.150          23.100  
R23  20958288.736                        2815.300          23.600  
> 2019  9  6 11  7 28.4480000  0 27
C09  38728911.959                         405.400          21.100  
C11  21952906.146                        1106.050          26.000  
C12  24771378.258                       -2728.421          32.400  
C14  23052059.218                        2526.128          38.000  
E07  25199526.557                        -726.283          31.800                                                                    25197400.729                        -543.850          25.700  
E12  25013139.291                        2316.650          17.700                                                                    25011012.263                        1727.150          18.500  
E19  27479495.868                        3206.150          24.500                                                                    27477369.440                        2390.600          23.300  
E26  23426723.643                       -1456.117          32.200                                                                  
E31  27304741.747                       -2368.450          22.400                                                                    27302587.139                       -1765.564          28.700  
G01  22110614.067                        2378.988          31.700    22108266.692                        1776.586          36.600  
G03  24747010.828                        3646.300          14.500  
G08  20508573.237                        -285.719          38.300    20506225.562                        -213.219          32.400  
G10  22680397.214                       -2797.700          28.400    22678052.837                       -2085.550          22.400  
G11  21586867.649                        2614.652          28.600  
G14  23178093.167                        2452.287          34.800  
G18  20497561.860                        1438.296          29.200  
G22  22982082.262                        2919.355          36.300  
G27  21889189.756                       -2729.721          37.900    21886843.880                       -2038.197          35.400  
G32  22431779.329                        1297.681          37.100    22429435.552                         969.671          33.800  
R01  24180031.939                        4566.350          22.900  
R06  22741995.271                       -3852.100          13.400  
R07  19786372.906                        -662.600          21.300  
R08  20668181.842                        3235.927          34.100  
R14  23479564.762                        -314.300          16.300  
R21  23517816.181                       -3362.400          16.100  
R22  19873801.980                        -874.700          26.800  
R23  20957785.554                        2803.000          25.600  
> 2019  9  6 11  7 29.4480000  0 27
C09  38728845.038                         395.600          19.600  
C11  21952688.729                        1096.600          27.600  
C12  24771907.924                       -2735.757          32.700  
C14  23051575.286                        2518.893          38.600  
E07  25199664.994                        -735.168          31.000                                                                    25197536.168                        -550.200          24.200  
E12  25012698.528                        2316.650          17.700                                                                    25010572.100                        1727.150          18.500  
E19  27478889.920                        3187.250          21.400                                                                    27476759.894                        2381.650          22.400  
E26  23427001.184                       -1464.139          32.800                                                                  
E31  27305184.773                       -2378.300          23.800                                                                    27303038.259                       -1771.678          29.700  
G01  22110159.814                        2371.215          30.100    22107814.538                        1771.200          35.900  
G03  24746316.741                        3646.300          14.500  
G08  20508625.333                        -293.120          39.200    20506280.956                        -218.743          31.800  
G10  22680942.170                       -2805.648          28.700    22678588.199                       -2093.150          23.600  
G11  21586380.719                        2606.350          24.800  
G14  23177625.723                        2444.698          35.600  
G18  20497286.583                        1431.232          30.600  
G22  22981525.780                        2911.846          36.500  
G27  21889707.730                       -2737.283          39.300    21887364.252                       -2043.881          35.700  
G32  22431532.532                        1289.990          37.700    22429189.354                         963.461          32.800  
R01  24179177.463                        4566.350          22.900  
R06  22742717.104                       -3852.100          13.400  
R07  19786496.653                        -662.600          21.300  
R08  20667564.202                        3227.715          33.500  
R14  23479623.454                        -314.300          16.300  
R21  23518444.479                       -3362.400          16.100  
R22  19873898.146                        -881.350          27.800  
R23  20957244.960                        2798.600          27.000  
> 2019  9  6 11  7 30.4480000  0 27
C09  38728769.088                         395.600          19.600  
C11  21952476.374                        1098.969          30.200  
C12  24772430.360                       -2735.152          33.800  
C14  23051091.918                        2519.015          39.000  
E07  25199806.094                        -734.190          30.700                                                                    25197676.368                        -550.200          24.200  
E12  25012259.530                        2315.050          15.900                                                                    25010132.502                        1717.550          19.200  
E19  27478284.836                        3192.550          22.000                                                                  
E26  23427282.886                       -1463.526          33.200                                                                  
E31  27305642.454                       -2373.950          22.400                                                                    27303487.246                       -1770.950          27.700  
G01  22109709.423                        2372.130          30.100    22107362.948                        1771.449          35.600  
G03  24745622.919                        3646.300          14.500  
G08  20508685.190                        -292.971          40.600    20506336.615                        -218.925          32.000  
G10  22681475.098                       -2805.299          29.100    22679121.728                       -2089.200          23.400  
G11  21585884.760                        2606.350          24.800  
G14  23177166.338                        2445.190          37.200  
G18  20497008.273                        1431.639          30.600  
G22  22980971.661                        2912.364          37.900  
G27  21890232.564                       -2736.795          41.100    21887884.889                       -2043.881          36.500  
G32  22431294.395                        1290.007          37.900    22428944.022                         963.582          33.400  
R01  24178347.535                        4551.600          18.900  
R06  22743438.902                       -3852.100          13.400  
R07  19786620.365                        -662.600          21.300  
R08  20666987.299                        3227.442          33.600  
R14  23479682.411                        -314.300          16.300  
R21  23519072.742                       -3362.400          16.100  
R22  19874073.422                        -881.913          29.100  
R23  20956727.117                        2800.750          24.600  
> 2019  9  6 11  7 31.4480000  0 27
C09  38728692.954                         395.600          19.600  
C11  21952268.031                        1099.403          29.900  
C12  24772952.312                       -2734.554          33.200  
C14  23050608.066                        2519.722          39.400  
E07  25199951.207                        -734.740          30.500                                                                    25197817.884                        -552.400          22.600  
E12  25011819.148                        2315.050          15.900                                                                    25009694.818                        1717.550          19.200  
E19  27477671.774                        3194.700          21.500                                                                    27475547.744                        2387.950          24.700  
E26  23427558.109                       -1463.512          33.600                                                                  
E31  27306094.254                       -2373.950          22.400                                                                    27303938.746                       -1771.207          28.700  
G01  22109264.544                        2372.534          31.300    22106912.073                        1771.850          35.900  
G03  24744928.912                        3646.300          14.500  
G08  20508740.065                        -292.485          40.600    20506393.289                        -218.644          31.800  
G10  22682013.239                       -2804.926          30.200    22679648.776                       -2093.700          23.000  
G11  21585358.337                        2608.650          20.200  
G14  23176695.378                        2445.777          36.800  
G18  20496744.469                        1431.783          32.000  
G22  22980412.561                        2913.025          37.600  
G27  21890753.017                       -2736.311          41.000    21888405.642                       -2043.661          36.900  
G32  22431051.276                        1290.586          38.500    22428698.505                         963.579          33.500  
R01  24177453.867                        4555.050          20.900  
R06  22744160.815                       -3852.100          13.400  
R07  19786817.341                        -676.800          17.500  
R08  20666379.933                        3228.223          34.200  
R14  23479741.483                        -314.300          16.300  
R21  23519701.120                       -3362.400          16.100  
R22  19874225.730                        -881.204          30.700  
R23  20956171.015                        2799.750          24.200  
> 2019  9  6 11  7 32.4480000  0 27
C09  38728639.523                         395.150          20.400  
C11  21952069.501                        1103.650          28.900  
C12  24773478.380                       -2730.323          33.100  
C14  23050122.934                        2523.122          39.100  
E07  25200078.551                        -731.512          30.000                                                                    25197958.119                        -544.900          24.400  
E12  25011378.385                        2315.050          15.900                                                                    25009257.354                        1717.550          19.200  
E19  27477050.236                        3192.400          22.700                                                                    27474940.297                        2383.700          23.900  
E26  23427840.746                       -1459.985          33.000                                                                  
E31  27306544.475                       -2362.850          21.200                                                                    27304391.066                       -1769.177          29.300  
G01  22108803.696                        2376.184          30.300    22106459.919                        1774.532          36.600  
G03  24744235.125                        3646.300          14.500  
G08  20508797.557                        -289.215          39.600    20506448.084                        -216.257          32.400  
G10  22682537.508                       -2801.117          30.500    22680189.234                       -2095.350          24.300  
G11  21584880.700                        2610.500          22.400  
G14  23176228.833                        2449.226          36.400  
G18  20496472.490                        1435.497          30.800  
G22  22979861.475                        2916.670          36.700  
G27  21891267.393                       -2732.822          40.400    21888925.415                       -2040.879          36.300  
G32  22430802.381                        1293.740          38.400    22428452.608                         966.039          33.900  
R01  24176601.789                        4555.050          20.900  
R06  22744882.648                       -3852.100          13.400  
R07  19786943.486                        -676.800          17.500  
R08  20665774.284                        3231.297          34.400  
R14  23479800.175                        -314.300          16.300  
R21  23520329.417                       -3362.400          16.100  
R22  19874429.821                        -877.658          28.700  
R23  20955667.596                        2803.750          25.000  
> 2019  9  6 11  7 33.4480000  0 27
C09  38728563.758                         395.150          20.400  
C11  21951852.533                        1108.900          29.000  
C12  24773999.802                       -2725.477          33.100  
C14  23049637.952                        2528.393          38.800  
E07  25200222.234                        -726.594          30.500                                                                    25198096.406                        -543.000          23.500  
E12  25010938.073                        2315.050          15.900                                                                    25008819.739                        1717.550          19.200  
E19  27476442.939                        3192.400          22.700                                                                  
E26  23428111.541                       -1454.936          32.500                                                                  
E31  27306972.961                       -2363.800          22.900                                                                    27304839.937                       -1763.916          27.800  
G01  22108356.488                        2381.494          29.400    22106007.614                        1778.422          36.000  
G03  24743541.188                        3646.300          14.500  
G08  20508850.103                        -284.475          40.300    20506501.829                        -212.288          32.300  
G10  22683073.620                       -2795.456          29.600    22680719.349                       -2091.650          23.300  
G11  21584384.027                        2610.500          22.400  
G14  23175767.235                        2454.560          36.700  
G18  20496191.666                        1440.401          30.500  
G22  22979301.545                        2921.882          36.600  
G27  21891790.014                       -2727.540          40.600    21889445.337                       -2036.883          35.800  
G32  22430553.336                        1298.636          38.600    22428205.961                         969.650          34.100  
R01  24175792.432                        4558.400          19.600  
R06  22745604.630                       -3852.100          13.400  
R07  19787017.917                        -671.700          18.800  
R08  20665168.486                        3236.384          35.200  
R14  23479859.316                        -314.300          16.300  
R21  23520957.864                       -3362.400          16.100  
R22  19874562.411                        -872.483          28.000  
R23  20955190.708                        2807.000          25.500  
> 2019  9  6 11  7 34.4480000  0 27
C09  38728471.314                         399.850          21.800  
C11  21951633.577                        1107.750          28.600  
C12  24774520.733                       -2726.167          31.400  
C14  23049150.981                        2527.569          38.200  
E07  25200359.131                        -725.990          30.900                                                                    25198234.801                        -540.750          22.600  
E12  25010497.569                        2315.050          15.900                                                                    25008382.234                        1717.550          19.200  
E19  27475839.948                        3201.600          21.200                                                                    27473721.914                        2392.800          23.600  
E26  23428386.042                       -1453.384          32.600                                                                  
E31  27307435.732                       -2358.450          22.200                                                                    27305291.017                       -1763.792          28.000  
G01  22107890.502                        2379.900          26.700    22105554.220                        1778.120          36.100  
G03  24742847.659                        3646.300          14.500  
G08  20508904.557                        -285.240          39.400    20506557.782                        -213.016          31.700  
G10  22683614.037                       -2796.300          30.200    22681253.771                       -2088.400          22.400  
G11  21583907.248                        2617.850          19.900  
G14  23175297.652                        2453.823          36.000  
G18  20495922.345                        1439.900          31.600  
G22  22978751.618                        2921.207          36.900  
G27  21892311.245                       -2728.282          39.800    21889965.069                       -2037.852          35.400  
G32  22430309.796                        1297.933          37.700    22427959.123                         969.186          33.400  
R01  24174940.014                        4558.400          19.600  
R06  22746326.722                       -3852.100          13.400  
R07  19787143.722                        -671.700          18.800  
R08  20664567.894                        3235.577          33.800  
R14  23479918.567                        -314.300          16.300  
R21  23521586.421                       -3362.400          16.100  
R22  19874725.390                        -873.012          28.300  
R23  20954612.600                        2811.300          26.600  
> 2019  9  6 11  7 35.4480000  0 26
C09  38728394.559                         399.850          21.800  
C11  21951414.121                        1099.650          27.500  
C12  24775044.762                       -2730.750          28.500  
C14  23048664.410                        2522.419          34.600  
E07  25200498.526                        -729.450          27.600                                                                    25198375.996                        -548.800          24.400  
E12  25010057.166                        2315.050          15.900                                                                    25007944.529                        1717.550          19.200  
E19  27475230.762                        3201.600          21.200                                                                    27473112.129                        2392.800          23.600  
E26  23428666.940                       -1458.400          28.400                                                                  
E31  27307884.513                       -2358.450          22.200                                                                    27305742.496                       -1771.950          26.300  
G01  22107447.701                        2376.373          35.000    22105101.825                        1774.578          35.700  
G08  20508959.411                        -289.797          34.000    20506609.938                        -217.017          30.400  
G10  22684133.869                       -2802.300          25.800    22681786.195                       -2088.050          22.700  
G11  21583376.907                        2611.321          36.800  
G14  23174823.672                        2449.781          30.800  
G18  20495654.922                        1434.985          33.200  
G22  22978193.396                        2916.374          34.400  
G27  21892832.276                       -2733.577          34.100    21890484.601                       -2041.487          31.900  
G32  22430054.065                        1291.809          32.800    22427711.187                         964.378          30.700  
R01  24174087.396                        4558.400          19.600  
R06  22747048.614                       -3852.100          13.400  
R07  19787269.027                        -671.700          18.800  
R08  20663939.221                        3229.050          30.500  
R14  23479977.318                        -314.300          16.300  
R21  23522214.478                       -3362.400          16.100  
R22  19874870.482                        -878.300          22.000  
R23  20954104.444                        2804.080          31.900  
> 2019  9  6 11  7 36.4480000  0 26
C09  38728317.717                         399.850          21.800  
C11  21951202.072                        1096.000          26.500  
C12  24775572.001                       -2736.166          30.800  
C14  23048184.647                        2516.352          36.000  
