% program   : RTKPOST ver.2.4.2
% inp file  : W:\ricerca\2018_2022_PhD_Lorenzo\codici\ReadRINEX-generated_by_Android-\Android_RINEX_data\geo++\merge_geopp_6sett.19o
% inp file  : W:\ricerca\2018_2022_PhD_Lorenzo\codici\ReadRINEX-generated_by_Android-\Android_RINEX_data\GENU\genu249l.19n
% obs start : 2019/09/06 11:07:15.4 GPST (week2069 472035.4s)
% obs end   : 2019/09/06 11:30:41.4 GPST (week2069 473441.4s)
% pos mode  : single
% elev mask : 15.0 deg
% ionos opt : broadcast
% tropo opt : saastamoinen
% ephemeris : broadcast
% navi sys  : gps glonass
%
% (lat/lon/height=WGS84/ellipsoidal,Q=1:fix,2:float,3:sbas,4:dgps,5:single,6:ppp,ns=# of satellites)
%  GPST                  latitude(deg) longitude(deg)  height(m)   Q  ns   sdn(m)   sde(m)   sdu(m)  sdne(m)  sdeu(m)  sdun(m) age(s)  ratio
2019/09/06 11:07:16.448   44.400536543    8.963468651    79.6142   5   9   2.7413   1.9146   6.7165   1.0413   1.7917  -1.4927   0.00    0.0
2019/09/06 11:07:17.448   44.400562930    8.963412827    79.4011   5   9   2.7412   1.9147   6.7174   1.0412   1.7930  -1.4917   0.00    0.0
2019/09/06 11:07:19.448   44.400501644    8.963515231    85.1723   5   9   2.7409   1.9151   6.7192   1.0409   1.7954  -1.4898   0.00    0.0
2019/09/06 11:07:22.448   44.400534349    8.963499042    87.1882   5   9   2.7405   1.9157   6.7219   1.0405   1.7991  -1.4869   0.00    0.0
2019/09/06 11:07:23.448   44.400500247    8.963560176   100.9335   5   9   2.7403   1.9159   6.7228   1.0404   1.8003  -1.4859   0.00    0.0
2019/09/06 11:07:26.448   44.400466874    8.963455546    83.3787   5   9   2.7399   1.9164   6.7256   1.0400   1.8041  -1.4830   0.00    0.0
2019/09/06 11:07:27.448   44.400435737    8.963464739    97.3272   5   9   2.7398   1.9166   6.7265   1.0399   1.8053  -1.4820   0.00    0.0
2019/09/06 11:07:28.448   44.400489741    8.963529952    91.1657   5   9   2.7397   1.9168   6.7274   1.0398   1.8065  -1.4810   0.00    0.0
2019/09/06 11:07:32.448   44.400439770    8.963472493    85.5945   5   9   2.7391   1.9176   6.7310   1.0393   1.8114  -1.4771   0.00    0.0
2019/09/06 11:07:35.448   44.400468902    8.963481760    77.4931   5   9   2.7387   1.9181   6.7337   1.0389   1.8151  -1.4742   0.00    0.0
2019/09/06 11:07:36.448   44.400438627    8.963397648    93.4022   5   9   2.7386   1.9183   6.7346   1.0388   1.8164  -1.4732   0.00    0.0
2019/09/06 11:07:37.448   44.400420053    8.963390708    75.9529   5   9   2.7384   1.9185   6.7356   1.0386   1.8176  -1.4723   0.00    0.0
2019/09/06 11:07:39.448   44.400510768    8.963468999    70.4043   5   9   2.7382   1.9189   6.7374   1.0384   1.8200  -1.4703   0.00    0.0
2019/09/06 11:07:40.448   44.400415587    8.963401917    88.0603   5   9   2.7380   1.9191   6.7383   1.0383   1.8213  -1.4693   0.00    0.0
2019/09/06 11:07:42.448   44.400551731    8.963458616    70.7753   5   9   2.7377   1.9195   6.7401   1.0380   1.8237  -1.4674   0.00    0.0
2019/09/06 11:07:44.448   44.400388615    8.963360614    82.4361   5   9   2.7375   1.9198   6.7419   1.0378   1.8262  -1.4654   0.00    0.0
2019/09/06 11:07:45.448   44.400522997    8.963433497    77.8900   5   9   2.7373   1.9200   6.7428   1.0376   1.8274  -1.4645   0.00    0.0
2019/09/06 11:07:46.448   44.400476930    8.963468486    81.4040   5   9   2.7372   1.9202   6.7437   1.0375   1.8286  -1.4635   0.00    0.0
2019/09/06 11:07:47.448   44.400428071    8.963374820    78.1954   5   9   2.7371   1.9204   6.7446   1.0374   1.8298  -1.4625   0.00    0.0
2019/09/06 11:07:48.448   44.400481850    8.963473409    75.9955   5   9   2.7369   1.9206   6.7455   1.0373   1.8310  -1.4615   0.00    0.0
2019/09/06 11:07:49.448   44.400439455    8.963440100   101.6040   5   9   2.7368   1.9208   6.7464   1.0371   1.8323  -1.4605   0.00    0.0
2019/09/06 11:07:50.448   44.400476576    8.963383662    81.6390   5   9   2.7367   1.9210   6.7474   1.0370   1.8335  -1.4596   0.00    0.0
2019/09/06 11:07:51.448   44.400416765    8.963403846    80.6513   5   9   2.7365   1.9212   6.7483   1.0369   1.8347  -1.4586   0.00    0.0
2019/09/06 11:07:52.448   44.400424861    8.963378913    71.4013   5   9   2.7364   1.9214   6.7492   1.0368   1.8359  -1.4576   0.00    0.0
2019/09/06 11:07:54.448   44.400422414    8.963371564    68.8361   5   9   2.7361   1.9218   6.7510   1.0365   1.8384  -1.4556   0.00    0.0
2019/09/06 11:08:02.448   44.400340750    8.963424096    61.7521   5   9   2.7351   1.9233   6.7583   1.0355   1.8481  -1.4478   0.00    0.0
2019/09/06 11:08:03.448   44.400392029    8.963412222    69.1121   5   9   2.7349   1.9235   6.7592   1.0354   1.8493  -1.4468   0.00    0.0
2019/09/06 11:08:06.448   44.400397949    8.963446218    62.0074   5   9   2.7345   1.9241   6.7619   1.0351   1.8530  -1.4439   0.00    0.0
2019/09/06 11:08:07.448   44.400462627    8.963430209    87.7074   5   9   2.7344   1.9243   6.7628   1.0349   1.8542  -1.4429   0.00    0.0
2019/09/06 11:08:08.448   44.400420037    8.963444832    64.6883   5   9   2.7343   1.9245   6.7637   1.0348   1.8554  -1.4419   0.00    0.0
2019/09/06 11:08:10.448   44.400446482    8.963360330    57.3113   5   9   2.7340   1.9249   6.7655   1.0346   1.8578  -1.4399   0.00    0.0
2019/09/06 11:08:12.448   44.400453001    8.963403785    71.7834   5   9   2.7338   1.9253   6.7673   1.0343   1.8603  -1.4380   0.00    0.0
2019/09/06 11:08:16.448   44.400508852    8.963490566    89.5042   5   9   2.7332   1.9261   6.7710   1.0339   1.8651  -1.4340   0.00    0.0
2019/09/06 11:08:18.448   44.400493579    8.963482794    87.7877   5   9   2.7330   1.9265   6.7728   1.0336   1.8675  -1.4320   0.00    0.0
2019/09/06 11:08:20.448   44.400503408    8.963499103    92.2540   5   9   2.7327   1.9269   6.7746   1.0334   1.8699  -1.4301   0.00    0.0
2019/09/06 11:08:22.448   44.400490633    8.963542267    88.8822   5   9   2.7325   1.9273   6.7764   1.0331   1.8723  -1.4281   0.00    0.0
2019/09/06 11:08:23.448   44.400454079    8.963549025    98.5247   5   9   2.7323   1.9275   6.7773   1.0330   1.8735  -1.4271   0.00    0.0
2019/09/06 11:08:26.448   44.400492691    8.963605777   109.7686   5   9   2.7319   1.9281   6.7800   1.0327   1.8772  -1.4241   0.00    0.0
2019/09/06 11:08:27.448   44.400458833    8.963606490   102.4178   5   9   2.7318   1.9283   6.7809   1.0326   1.8784  -1.4231   0.00    0.0
2019/09/06 11:08:28.448   44.400459833    8.963545069    94.9887   5   9   2.7317   1.9285   6.7818   1.0324   1.8796  -1.4221   0.00    0.0
2019/09/06 11:08:29.448   44.400461356    8.963565687   102.3821   5   9   2.7316   1.9287   6.7827   1.0323   1.8808  -1.4211   0.00    0.0
2019/09/06 11:08:34.448   44.400468044    8.963541981    92.9833   5   9   2.7309   1.9297   6.7873   1.0317   1.8868  -1.4162   0.00    0.0
2019/09/06 11:08:35.448   44.400491280    8.963546534    97.8578   5   9   2.7308   1.9299   6.7882   1.0316   1.8880  -1.4152   0.00    0.0
2019/09/06 11:08:37.448   44.400459605    8.963522125    85.5285   5   9   2.7305   1.9303   6.7900   1.0314   1.8904  -1.4132   0.00    0.0
2019/09/06 11:08:38.448   44.400473653    8.963509400    76.5730   5   9   2.7304   1.9305   6.7909   1.0313   1.8916  -1.4122   0.00    0.0
2019/09/06 11:08:39.448   44.400435440    8.963496721    83.4651   5   9   2.7303   1.9307   6.7918   1.0311   1.8928  -1.4112   0.00    0.0
2019/09/06 11:08:40.448   44.400459620    8.963507140    88.0976   5   9   2.7302   1.9309   6.7927   1.0310   1.8940  -1.4102   0.00    0.0
2019/09/06 11:08:42.448   44.400439400    8.963517583    83.2246   5   9   2.7299   1.9313   6.7945   1.0308   1.8964  -1.4082   0.00    0.0
2019/09/06 11:08:43.448   44.400474526    8.963504458    85.1814   5   9   2.7298   1.9315   6.7954   1.0307   1.8976  -1.4072   0.00    0.0
2019/09/06 11:08:44.448   44.400501626    8.963461935    85.1167   5   9   2.7297   1.9317   6.7963   1.0306   1.8988  -1.4062   0.00    0.0
2019/09/06 11:08:45.448   44.400503176    8.963487365   101.0070   5   9   2.7295   1.9319   6.7972   1.0304   1.9000  -1.4053   0.00    0.0
2019/09/06 11:08:47.448   44.400482873    8.963515937    86.2306   5   9   2.7293   1.9323   6.7990   1.0302   1.9024  -1.4033   0.00    0.0
2019/09/06 11:08:48.448   44.400472466    8.963426086    71.7827   5   9   2.7292   1.9325   6.7999   1.0301   1.9036  -1.4023   0.00    0.0
2019/09/06 11:08:49.448   44.400474044    8.963473339    79.6991   5   9   2.7290   1.9327   6.8009   1.0300   1.9048  -1.4013   0.00    0.0
2019/09/06 11:08:51.448   44.400539678    8.963430789    86.0263   5   9   2.7288   1.9331   6.8027   1.0297   1.9072  -1.3993   0.00    0.0
2019/09/06 11:08:53.448   44.400477055    8.963468077    98.7301   5   9   2.7285   1.9335   6.8045   1.0295   1.9096  -1.3973   0.00    0.0
2019/09/06 11:08:55.448   44.400518419    8.963485454    95.0461   5   9   2.7283   1.9340   6.8063   1.0293   1.9120  -1.3953   0.00    0.0
2019/09/06 11:08:56.448   44.400448985    8.963497730    87.7097   5   9   2.7282   1.9342   6.8072   1.0292   1.9132  -1.3943   0.00    0.0
2019/09/06 11:08:58.448   44.400517917    8.963482433   100.3812   5   9   2.7279   1.9346   6.8090   1.0289   1.9156  -1.3923   0.00    0.0
2019/09/06 11:08:59.448   44.400531044    8.963491549   102.5201   5   9   2.7278   1.9348   6.8099   1.0288   1.9168  -1.3913   0.00    0.0
2019/09/06 11:09:00.448   44.400490085    8.963505883   103.8847   5   9   2.7277   1.9350   6.8108   1.0287   1.9180  -1.3903   0.00    0.0
2019/09/06 11:09:02.448   44.400489590    8.963556949    91.9214   5   9   2.7274   1.9354   6.8126   1.0285   1.9204  -1.3883   0.00    0.0
2019/09/06 11:09:03.448   44.400494136    8.963520767   102.0265   5   9   2.7273   1.9356   6.8135   1.0284   1.9216  -1.3873   0.00    0.0
2019/09/06 11:09:05.448   44.400490522    8.963503549    94.2470   5   9   2.7271   1.9360   6.8153   1.0282   1.9239  -1.3852   0.00    0.0
2019/09/06 11:09:06.448   44.400479743    8.963485614    94.1100   5   9   2.7269   1.9362   6.8162   1.0280   1.9251  -1.3842   0.00    0.0
2019/09/06 11:09:08.448   44.400478267    8.963523365    81.1246   5   9   2.7267   1.9367   6.8180   1.0278   1.9275  -1.3822   0.00    0.0
2019/09/06 11:09:10.448   44.400517977    8.963506744    92.9084   5   9   2.7265   1.9371   6.8198   1.0276   1.9299  -1.3802   0.00    0.0
2019/09/06 11:09:14.448   44.400515720    8.963450323    90.1373   5   9   2.7260   1.9379   6.8234   1.0271   1.9347  -1.3762   0.00    0.0
2019/09/06 11:09:15.448   44.400522810    8.963422364    87.6547   5   9   2.7258   1.9381   6.8243   1.0270   1.9359  -1.3752   0.00    0.0
2019/09/06 11:09:21.448   44.400454587    8.963416974    81.0034   5   9   2.7251   1.9394   6.8298   1.0264   1.9430  -1.3691   0.00    0.0
2019/09/06 11:09:22.448   44.400450154    8.963462669    84.2428   5   9   2.7250   1.9396   6.8307   1.0263   1.9442  -1.3681   0.00    0.0
2019/09/06 11:09:28.448   44.400467737    8.963442861    83.2009   5   9   2.7243   1.9409   6.8361   1.0256   1.9513  -1.3621   0.00    0.0
2019/09/06 11:09:29.448   44.400420478    8.963424337    64.1042   5   9   2.7242   1.9411   6.8370   1.0255   1.9525  -1.3610   0.00    0.0
2019/09/06 11:09:31.448   44.400438451    8.963501904    76.8617   5   9   2.7239   1.9415   6.8388   1.0253   1.9548  -1.3590   0.00    0.0
2019/09/06 11:09:32.448   44.400472862    8.963460196    82.9366   5   9   2.7238   1.9417   6.8397   1.0251   1.9560  -1.3580   0.00    0.0
2019/09/06 11:09:34.448   44.400503480    8.963474368    83.8737   5   9   2.7236   1.9422   6.8415   1.0249   1.9584  -1.3560   0.00    0.0
2019/09/06 11:09:39.448   44.400463696    8.963489085    75.4721   5   9   2.7230   1.9432   6.8460   1.0244   1.9643  -1.3509   0.00    0.0
2019/09/06 11:09:42.448   44.400491923    8.963471939    80.2699   5   9   2.7226   1.9439   6.8487   1.0241   1.9678  -1.3479   0.00    0.0
2019/09/06 11:09:43.448   44.400430422    8.963485400    93.4029   5   9   2.7225   1.9441   6.8496   1.0240   1.9690  -1.3468   0.00    0.0
2019/09/06 11:09:54.448   44.400470484    8.963409445    65.4071   5   9   2.7213   1.9465   6.8594   1.0228   1.9819  -1.3357   0.00    0.0
2019/09/06 11:09:55.448   44.400467040    8.963480457    74.4453   5   9   2.7211   1.9467   6.8603   1.0227   1.9831  -1.3346   0.00    0.0
2019/09/06 11:09:56.448   44.400492879    8.963468643    71.1454   5   9   2.7210   1.9469   6.8612   1.0225   1.9842  -1.3336   0.00    0.0
2019/09/06 11:09:57.448   44.400481116    8.963482810    89.3011   5   9   2.7209   1.9472   6.8621   1.0224   1.9854  -1.3326   0.00    0.0
2019/09/06 11:10:16.448   44.400454743    8.963543003   102.5485   5   9   2.7188   1.9514   6.8791   1.0204   2.0076  -1.3131   0.00    0.0
2019/09/06 11:10:17.448   44.400436282    8.963497738    83.2382   5   9   2.7186   1.9516   6.8800   1.0203   2.0088  -1.3121   0.00    0.0
2019/09/06 11:10:19.448   44.400415851    8.963533527   102.0918   5   9   2.7184   1.9520   6.8818   1.0201   2.0111  -1.3100   0.00    0.0
2019/09/06 11:10:21.448   44.400485201    8.963516661   103.3055   5   9   2.7182   1.9525   6.8836   1.0199   2.0135  -1.3080   0.00    0.0
2019/09/06 11:10:22.448   44.400480890    8.963494744    86.1092   5   9   2.7181   1.9527   6.8845   1.0198   2.0146  -1.3069   0.00    0.0
2019/09/06 11:10:24.448   44.400447669    8.963522865    91.2041   5   9   2.7179   1.9532   6.8863   1.0196   2.0169  -1.3049   0.00    0.0
2019/09/06 11:10:25.448   44.400504570    8.963481684   106.0041   5   9   2.7178   1.9534   6.8872   1.0195   2.0181  -1.3039   0.00    0.0
2019/09/06 11:10:27.448   44.400463292    8.963551268   106.1784   5   9   2.7175   1.9538   6.8890   1.0193   2.0204  -1.3018   0.00    0.0
2019/09/06 11:10:28.448   44.400473858    8.963541799    97.7774   5   9   2.7174   1.9541   6.8899   1.0192   2.0216  -1.3008   0.00    0.0
2019/09/06 11:10:32.448   44.400457693    8.963547471   100.0836   5   9   2.7170   1.9550   6.8934   1.0188   2.0262  -1.2966   0.00    0.0
2019/09/06 11:10:33.448   44.400463124    8.963532710   101.4976   5   9   2.7169   1.9552   6.8943   1.0187   2.0274  -1.2956   0.00    0.0
2019/09/06 11:10:35.448   44.400555747    8.963529350   114.6701   5   9   2.7167   1.9557   6.8961   1.0185   2.0297  -1.2935   0.00    0.0
2019/09/06 11:10:38.448   44.400485761    8.963545741   100.1639   5   9   2.7163   1.9563   6.8988   1.0182   2.0332  -1.2904   0.00    0.0
2019/09/06 11:10:39.448   44.400538521    8.963541878   110.0924   5   9   2.7162   1.9566   6.8997   1.0181   2.0343  -1.2894   0.00    0.0
2019/09/06 11:10:40.448   44.400531510    8.963515777   114.6310   5   9   2.7161   1.9568   6.9006   1.0180   2.0355  -1.2883   0.00    0.0
2019/09/06 11:10:41.448   44.400521745    8.963516703   102.7408   5   9   2.7160   1.9570   6.9014   1.0179   2.0367  -1.2873   0.00    0.0
2019/09/06 11:10:42.448   44.400557267    8.963500164   109.1671   5   9   2.7159   1.9573   6.9023   1.0178   2.0378  -1.2863   0.00    0.0
2019/09/06 11:10:43.448   44.400516939    8.963557006   103.3877   5   9   2.7158   1.9575   6.9032   1.0177   2.0390  -1.2852   0.00    0.0
2019/09/06 11:10:44.448   44.400477275    8.963566344    98.8753   5   9   2.7157   1.9577   6.9041   1.0176   2.0401  -1.2842   0.00    0.0
2019/09/06 11:10:46.448   44.400512530    8.963523602    92.5079   5   9   2.7155   1.9582   6.9059   1.0174   2.0424  -1.2821   0.00    0.0
2019/09/06 11:10:47.448   44.400538381    8.963455035    85.7592   5   9   2.7154   1.9584   6.9068   1.0172   2.0436  -1.2811   0.00    0.0
2019/09/06 11:10:48.448   44.400504284    8.963519545    95.4611   5   9   2.7153   1.9586   6.9077   1.0172   2.0448  -1.2800   0.00    0.0
2019/09/06 11:10:51.448   44.400472685    8.963474355    91.0880   5   9   2.7149   1.9593   6.9103   1.0168   2.0482  -1.2769   0.00    0.0
2019/09/06 11:10:52.448   44.400465423    8.963511630    75.2524   5   9   2.7148   1.9596   6.9112   1.0167   2.0494  -1.2759   0.00    0.0
2019/09/06 11:10:53.448   44.400480697    8.963455151    86.4632   5   9   2.7147   1.9598   6.9121   1.0166   2.0505  -1.2748   0.00    0.0
2019/09/06 11:10:54.448   44.400478081    8.963439394    81.9783   5   9   2.7146   1.9600   6.9130   1.0165   2.0517  -1.2738   0.00    0.0
2019/09/06 11:10:55.448   44.400496068    8.963500448    85.1835   5   9   2.7145   1.9602   6.9139   1.0164   2.0528  -1.2728   0.00    0.0
2019/09/06 11:11:05.448   44.400484759    8.963526697    87.0522   5   9   2.7135   1.9626   6.9228   1.0154   2.0643  -1.2623   0.00    0.0
2019/09/06 11:11:08.448   44.400510963    8.963457049    88.7493   5   9   2.7131   1.9633   6.9254   1.0151   2.0678  -1.2592   0.00    0.0
2019/09/06 11:11:10.448   44.400509164    8.963449562    93.4960   5   9   2.7129   1.9637   6.9272   1.0150   2.0701  -1.2571   0.00    0.0
2019/09/06 11:11:12.448   44.400462024    8.963459382    85.1568   5   9   2.7127   1.9642   6.9290   1.0148   2.0724  -1.2550   0.00    0.0
2019/09/06 11:11:15.448   44.400525314    8.963431617    94.6624   5   9   2.7124   1.9649   6.9316   1.0145   2.0758  -1.2518   0.00    0.0
2019/09/06 11:11:17.448   44.400450692    8.963516932    91.8711   5   9   2.7122   1.9654   6.9334   1.0143   2.0781  -1.2497   0.00    0.0
2019/09/06 11:11:19.448   44.400454074    8.963497380    90.0675   5   9   2.7120   1.9659   6.9351   1.0141   2.0804  -1.2476   0.00    0.0
2019/09/06 11:11:22.448   44.400417362    8.963509976    78.5174   5   9   2.7117   1.9666   6.9378   1.0138   2.0838  -1.2445   0.00    0.0
2019/09/06 11:11:23.448   44.400449822    8.963480675    90.6007   5   9   2.7116   1.9668   6.9387   1.0137   2.0850  -1.2434   0.00    0.0
2019/09/06 11:11:24.448   44.400406742    8.963485210    85.0401   5   9   2.7115   1.9671   6.9396   1.0136   2.0861  -1.2423   0.00    0.0
2019/09/06 11:11:25.448   44.400420159    8.963464962    87.7435   5   9   2.7114   1.9673   6.9404   1.0135   2.0872  -1.2413   0.00    0.0
2019/09/06 11:11:27.448   44.400432820    8.963539438    84.7190   5   9   2.7112   1.9678   6.9422   1.0133   2.0895  -1.2392   0.00    0.0
2019/09/06 11:11:28.448   44.400491720    8.963445165    92.8994   5   9   2.7111   1.9680   6.9431   1.0132   2.0907  -1.2382   0.00    0.0
2019/09/06 11:11:31.448   44.400445310    8.963416941    79.1998   5   9   2.7108   1.9687   6.9457   1.0129   2.0941  -1.2350   0.00    0.0
2019/09/06 11:11:33.448   44.400428650    8.963428748    86.3844   5   9   2.7106   1.9692   6.9475   1.0127   2.0964  -1.2329   0.00    0.0
2019/09/06 11:11:35.448   44.400459341    8.963403147    74.6105   5   9   2.7104   1.9697   6.9492   1.0125   2.0987  -1.2308   0.00    0.0
2019/09/06 11:11:36.448   44.400429021    8.963499962    90.7073   5   9   2.7103   1.9699   6.9501   1.0124   2.0998  -1.2297   0.00    0.0
2019/09/06 11:11:37.448   44.400436748    8.963436522    83.2538   5   9   2.7102   1.9702   6.9510   1.0123   2.1009  -1.2286   0.00    0.0
2019/09/06 11:11:38.448   44.400444415    8.963425116    69.5235   5   9   2.7101   1.9704   6.9519   1.0122   2.1021  -1.2276   0.00    0.0
2019/09/06 11:11:39.448   44.400454677    8.963441333    85.2785   5   9   2.7100   1.9706   6.9528   1.0121   2.1032  -1.2265   0.00    0.0
2019/09/06 11:11:40.448   44.400465871    8.963473886    82.6428   5   9   2.7099   1.9709   6.9536   1.0120   2.1043  -1.2255   0.00    0.0
2019/09/06 11:11:42.448   44.400538767    8.963459905    88.2359   5   9   2.7097   1.9714   6.9554   1.0118   2.1066  -1.2234   0.00    0.0
2019/09/06 11:11:44.448   44.400448720    8.963485103    92.1650   5   9   2.7095   1.9718   6.9571   1.0117   2.1089  -1.2212   0.00    0.0
2019/09/06 11:11:47.448   44.400480863    8.963481857    94.3744   5   9   2.7092   1.9726   6.9598   1.0114   2.1123  -1.2181   0.00    0.0
2019/09/06 11:11:48.448   44.400502201    8.963446563    94.2780   5   9   2.7091   1.9728   6.9606   1.0113   2.1134  -1.2170   0.00    0.0
2019/09/06 11:11:49.448   44.400465238    8.963497150    94.8876   5   9   2.7090   1.9731   6.9615   1.0112   2.1146  -1.2159   0.00    0.0
2019/09/06 11:11:50.448   44.400452807    8.963496838    91.1213   5   9   2.7089   1.9733   6.9624   1.0111   2.1157  -1.2149   0.00    0.0
2019/09/06 11:11:51.448   44.400469530    8.963467159    89.5583   5   9   2.7088   1.9735   6.9633   1.0110   2.1168  -1.2138   0.00    0.0
2019/09/06 11:11:52.448   44.400504839    8.963524777    91.9232   5   9   2.7087   1.9738   6.9642   1.0109   2.1179  -1.2128   0.00    0.0
2019/09/06 11:11:53.448   44.400478744    8.963500477    86.5856   5   9   2.7086   1.9740   6.9650   1.0108   2.1191  -1.2117   0.00    0.0
2019/09/06 11:11:54.448   44.400505682    8.963526640    93.8702   5   9   2.7085   1.9743   6.9659   1.0107   2.1202  -1.2106   0.00    0.0
2019/09/06 11:11:56.448   44.400432824    8.963515313    95.7417   5   9   2.7083   1.9748   6.9677   1.0105   2.1225  -1.2085   0.00    0.0
2019/09/06 11:11:57.448   44.400446061    8.963512711    87.7656   5   9   2.7082   1.9750   6.9685   1.0104   2.1236  -1.2074   0.00    0.0
2019/09/06 11:11:59.448   44.400480945    8.963484442    87.3416   5   9   2.7080   1.9755   6.9703   1.0102   2.1259  -1.2053   0.00    0.0
2019/09/06 11:12:00.448   44.400500588    8.963447362    86.6495   5   9   2.7079   1.9757   6.9711   1.0101   2.1270  -1.2042   0.00    0.0
2019/09/06 11:12:01.448   44.400462338    8.963523854    90.4694   5   9   2.7078   1.9760   6.9720   1.0100   2.1281  -1.2032   0.00    0.0
2019/09/06 11:12:02.448   44.400501917    8.963493585    98.6390   5   9   2.7077   1.9762   6.9729   1.0099   2.1293  -1.2021   0.00    0.0
2019/09/06 11:12:03.448   44.400503529    8.963504377    97.7574   5   9   2.7076   1.9765   6.9738   1.0099   2.1304  -1.2010   0.00    0.0
2019/09/06 11:12:04.448   44.400482231    8.963515405   100.7735   5   9   2.7075   1.9767   6.9746   1.0098   2.1315  -1.2000   0.00    0.0
2019/09/06 11:12:07.448   44.400438371    8.963562649    93.9093   5   9   2.7072   1.9775   6.9773   1.0095   2.1349  -1.1967   0.00    0.0
2019/09/06 11:12:11.448   44.400485452    8.963531428   105.7631   5   9   2.7068   1.9784   6.9807   1.0091   2.1394  -1.1925   0.00    0.0
2019/09/06 11:12:13.448   44.400451990    8.963504180    96.1529   5   9   2.7066   1.9789   6.9825   1.0089   2.1417  -1.1903   0.00    0.0
2019/09/06 11:12:14.448   44.400460194    8.963511342    98.0128   5   9   2.7065   1.9792   6.9834   1.0088   2.1428  -1.1893   0.00    0.0
2019/09/06 11:12:15.448   44.400427552    8.963528376    99.6724   5   9   2.7065   1.9794   6.9842   1.0087   2.1439  -1.1882   0.00    0.0
2019/09/06 11:12:16.448   44.400424821    8.963506799    83.6266   5   9   2.7064   1.9797   6.9851   1.0086   2.1450  -1.1871   0.00    0.0
2019/09/06 11:12:17.448   44.400463516    8.963466774    84.9166   5   9   2.7063   1.9799   6.9860   1.0085   2.1462  -1.1860   0.00    0.0
2019/09/06 11:12:18.448   44.400445490    8.963500436    88.9531   5   9   2.7062   1.9802   6.9868   1.0085   2.1473  -1.1850   0.00    0.0
2019/09/06 11:12:19.448   44.400410454    8.963553524    85.2875   5   9   2.7061   1.9804   6.9877   1.0084   2.1484  -1.1839   0.00    0.0
2019/09/06 11:12:21.448   44.400459592    8.963505086    93.9389   5   9   2.7059   1.9809   6.9894   1.0082   2.1507  -1.1817   0.00    0.0
2019/09/06 11:12:22.448   44.400449856    8.963513690    96.2628   5   9   2.7058   1.9812   6.9903   1.0081   2.1518  -1.1807   0.00    0.0
2019/09/06 11:12:23.448   44.400475519    8.963501690    95.8328   5   9   2.7057   1.9814   6.9912   1.0080   2.1529  -1.1796   0.00    0.0
2019/09/06 11:12:24.448   44.400472029    8.963518209    93.6150   5   9   2.7056   1.9817   6.9920   1.0079   2.1540  -1.1785   0.00    0.0
2019/09/06 11:12:25.448   44.400458248    8.963526607   101.5023   5   9   2.7055   1.9819   6.9929   1.0078   2.1551  -1.1774   0.00    0.0
2019/09/06 11:12:26.448   44.400454119    8.963535932    85.4119   5   9   2.7054   1.9822   6.9938   1.0077   2.1563  -1.1764   0.00    0.0
2019/09/06 11:12:27.448   44.400410771    8.963485021    95.7102   5   9   2.7053   1.9824   6.9946   1.0076   2.1574  -1.1753   0.00    0.0
2019/09/06 11:12:28.448   44.400481232    8.963490771    84.6307   5   9   2.7052   1.9827   6.9955   1.0075   2.1585  -1.1742   0.00    0.0
2019/09/06 11:12:30.448   44.400491749    8.963461166    84.6563   5   9   2.7050   1.9832   6.9972   1.0073   2.1608  -1.1721   0.00    0.0
2019/09/06 11:12:31.448   44.400488806    8.963489309    87.1149   5   9   2.7049   1.9834   6.9981   1.0073   2.1619  -1.1710   0.00    0.0
2019/09/06 11:12:32.448   44.400449374    8.963505258    79.6500   5   9   2.7049   1.9837   6.9990   1.0072   2.1630  -1.1699   0.00    0.0
2019/09/06 11:12:33.448   44.400452727    8.963541771    89.4496   5   9   2.7048   1.9839   6.9998   1.0071   2.1641  -1.1688   0.00    0.0
2019/09/06 11:12:34.448   44.400457951    8.963567141    94.7714   5   9   2.7047   1.9842   7.0007   1.0070   2.1652  -1.1678   0.00    0.0
2019/09/06 11:12:35.448   44.400465730    8.963516989    91.2516   5   9   2.7046   1.9844   7.0016   1.0069   2.1663  -1.1667   0.00    0.0
2019/09/06 11:12:36.448   44.400467013    8.963515783    78.0848   5   9   2.7045   1.9847   7.0024   1.0068   2.1675  -1.1656   0.00    0.0
2019/09/06 11:12:37.448   44.400482429    8.963515253    83.9412   5   9   2.7044   1.9849   7.0033   1.0067   2.1686  -1.1645   0.00    0.0
2019/09/06 11:12:38.448   44.400456882    8.963529363    88.6214   5   9   2.7043   1.9852   7.0042   1.0066   2.1697  -1.1634   0.00    0.0
2019/09/06 11:12:40.448   44.400529040    8.963490808    84.5227   5   9   2.7041   1.9857   7.0059   1.0064   2.1719  -1.1613   0.00    0.0
2019/09/06 11:12:41.448   44.400498561    8.963440721    79.4372   5   9   2.7040   1.9860   7.0067   1.0063   2.1731  -1.1602   0.00    0.0
2019/09/06 11:12:42.448   44.400512782    8.963504950    81.3159   5   9   2.7039   1.9862   7.0076   1.0063   2.1742  -1.1591   0.00    0.0
2019/09/06 11:12:46.448   44.400530928    8.963419024    79.9862   5   9   2.7036   1.9872   7.0111   1.0059   2.1786  -1.1548   0.00    0.0
2019/09/06 11:12:47.448   44.400541365    8.963434435    78.5867   5   9   2.7035   1.9875   7.0119   1.0058   2.1798  -1.1537   0.00    0.0
2019/09/06 11:12:48.448   44.400556108    8.963454945    88.3602   5   9   2.7034   1.9877   7.0128   1.0057   2.1809  -1.1526   0.00    0.0
2019/09/06 11:12:49.448   44.400513845    8.963461815    83.2304   5   9   2.7033   1.9880   7.0136   1.0056   2.1820  -1.1515   0.00    0.0
2019/09/06 11:12:50.448   44.400536373    8.963425327    88.6900   5   9   2.7032   1.9882   7.0145   1.0055   2.1831  -1.1505   0.00    0.0
2019/09/06 11:12:52.448   44.400529930    8.963466748    78.4235   5   9   2.7030   1.9887   7.0162   1.0053   2.1853  -1.1483   0.00    0.0
2019/09/06 11:12:53.448   44.400531962    8.963401028    81.6281   5   9   2.7029   1.9890   7.0171   1.0053   2.1864  -1.1472   0.00    0.0
2019/09/06 11:12:54.448   44.400469387    8.963474718    97.2988   5   9   2.7028   1.9893   7.0179   1.0052   2.1875  -1.1461   0.00    0.0
2019/09/06 11:12:55.448   44.400492786    8.963497565    83.3155   5   9   2.7027   1.9895   7.0188   1.0051   2.1887  -1.1450   0.00    0.0
2019/09/06 11:12:56.448   44.400510266    8.963482636    71.8517   5   9   2.7027   1.9898   7.0197   1.0050   2.1898  -1.1439   0.00    0.0
2019/09/06 11:12:58.448   44.400464588    8.963461694    69.0278   5   9   2.7025   1.9903   7.0214   1.0048   2.1920  -1.1417   0.00    0.0
2019/09/06 11:12:59.448   44.400512001    8.963442590    72.7125   5   9   2.7024   1.9905   7.0222   1.0047   2.1931  -1.1407   0.00    0.0
2019/09/06 11:13:00.448   44.400488452    8.963456741    72.7143   5   9   2.7023   1.9908   7.0231   1.0046   2.1942  -1.1396   0.00    0.0
2019/09/06 11:13:01.448   44.400528399    8.963433315    66.5168   5   9   2.7022   1.9911   7.0239   1.0045   2.1953  -1.1385   0.00    0.0
2019/09/06 11:13:02.448   44.400496767    8.963432111    83.7878   5   9   2.7021   1.9913   7.0248   1.0045   2.1964  -1.1374   0.00    0.0
2019/09/06 11:13:03.448   44.400438758    8.963411938    80.5346   5   9   2.7020   1.9916   7.0257   1.0044   2.1975  -1.1363   0.00    0.0
2019/09/06 11:13:04.448   44.400459087    8.963479080    79.6437   5   9   2.7019   1.9918   7.0265   1.0043   2.1986  -1.1352   0.00    0.0
2019/09/06 11:13:05.448   44.400453235    8.963470188    71.1923   5   9   2.7018   1.9921   7.0274   1.0042   2.1998  -1.1341   0.00    0.0
2019/09/06 11:13:11.448   44.400443077    8.963460654    83.5306   5   9   2.7013   1.9936   7.0325   1.0037   2.2064  -1.1276   0.00    0.0
2019/09/06 11:13:12.448   44.400451529    8.963370547    73.2734   5   9   2.7012   1.9939   7.0333   1.0036   2.2075  -1.1265   0.00    0.0
2019/09/06 11:13:14.448   44.400429284    8.963426500    80.2518   5   9   2.7011   1.9944   7.0351   1.0034   2.2097  -1.1243   0.00    0.0
2019/09/06 11:13:15.448   44.400453387    8.963449050    80.2720   5   9   2.7010   1.9947   7.0359   1.0033   2.2108  -1.1232   0.00    0.0
2019/09/06 11:13:16.448   44.400450854    8.963408162    78.9717   5   9   2.7009   1.9949   7.0368   1.0032   2.2119  -1.1221   0.00    0.0
2019/09/06 11:13:18.448   44.400455813    8.963444640    85.9293   5   9   2.7007   1.9955   7.0385   1.0030   2.2141  -1.1199   0.00    0.0
2019/09/06 11:13:19.448   44.400478740    8.963466769    92.4287   5   9   2.7006   1.9957   7.0393   1.0029   2.2152  -1.1188   0.00    0.0
2019/09/06 11:13:20.448   44.400435464    8.963455607    80.6485   5   9   2.7005   1.9960   7.0402   1.0029   2.2163  -1.1177   0.00    0.0
2019/09/06 11:13:21.448   44.400502885    8.963483613    87.3838   5   9   2.7004   1.9962   7.0410   1.0028   2.2174  -1.1166   0.00    0.0
2019/09/06 11:13:22.448   44.400492645    8.963486731    94.6001   5   9   2.7004   1.9965   7.0419   1.0027   2.2185  -1.1155   0.00    0.0
2019/09/06 11:13:23.448   44.400461423    8.963465832    86.1763   5   9   2.7003   1.9968   7.0427   1.0026   2.2197  -1.1144   0.00    0.0
2019/09/06 11:13:24.448   44.400513408    8.963474300    91.1047   5   9   2.7002   1.9970   7.0436   1.0025   2.2208  -1.1133   0.00    0.0
2019/09/06 11:13:25.448   44.400481176    8.963462272    91.2360   5   9   2.7001   1.9973   7.0444   1.0024   2.2219  -1.1122   0.00    0.0
2019/09/06 11:13:26.448   44.400453017    8.963486369    95.4229   5   9   2.7000   1.9975   7.0453   1.0023   2.2230  -1.1111   0.00    0.0
2019/09/06 11:13:27.448   44.400462318    8.963485445    91.1614   5   9   2.6999   1.9978   7.0461   1.0022   2.2241  -1.1100   0.00    0.0
2019/09/06 11:13:28.448   44.400554196    8.963465292    96.3153   5   9   2.6998   1.9981   7.0469   1.0021   2.2252  -1.1089   0.00    0.0
2019/09/06 11:13:30.448   44.400528698    8.963490397   110.4508   5   9   2.6997   1.9986   7.0486   1.0020   2.2274  -1.1067   0.00    0.0
2019/09/06 11:13:31.448   44.400497734    8.963556471    99.5784   5   9   2.6996   1.9989   7.0495   1.0019   2.2284  -1.1056   0.00    0.0
2019/09/06 11:13:32.448   44.400511898    8.963452879    91.8394   5   9   2.6995   1.9991   7.0503   1.0018   2.2296  -1.1045   0.00    0.0
2019/09/06 11:13:33.448   44.400497805    8.963470132    90.4253   5   9   2.6994   1.9994   7.0512   1.0017   2.2307  -1.1034   0.00    0.0
2019/09/06 11:13:34.448   44.400454350    8.963475173    97.8024   5   9   2.6993   1.9996   7.0520   1.0016   2.2318  -1.1023   0.00    0.0
2019/09/06 11:13:35.448   44.400575760    8.963472599    85.8664   5   9   2.6992   1.9999   7.0529   1.0015   2.2329  -1.1012   0.00    0.0
2019/09/06 11:13:36.448   44.400471670    8.963510037    88.6944   5   9   2.6992   2.0002   7.0537   1.0015   2.2339  -1.1001   0.00    0.0
2019/09/06 11:13:37.448   44.400473935    8.963466826    69.2568   5   9   2.6991   2.0004   7.0546   1.0014   2.2351  -1.0990   0.00    0.0
2019/09/06 11:13:38.448   44.400489678    8.963481484    83.5457   5   9   2.6990   2.0007   7.0554   1.0013   2.2361  -1.0979   0.00    0.0
2019/09/06 11:13:39.448   44.400465062    8.963449638    67.1536   5   9   2.6989   2.0010   7.0563   1.0012   2.2372  -1.0968   0.00    0.0
2019/09/06 11:13:40.448   44.400523149    8.963481277    84.5688   5   9   2.6988   2.0012   7.0571   1.0011   2.2383  -1.0957   0.00    0.0
2019/09/06 11:13:42.448   44.400453492    8.963453264    64.4883   5   9   2.6986   2.0018   7.0588   1.0009   2.2405  -1.0935   0.00    0.0
2019/09/06 11:13:43.448   44.400499664    8.963433950    78.6212   5   9   2.6986   2.0020   7.0596   1.0008   2.2416  -1.0924   0.00    0.0
2019/09/06 11:13:44.448   44.400486186    8.963404847    71.8506   5   9   2.6985   2.0023   7.0605   1.0008   2.2427  -1.0913   0.00    0.0
2019/09/06 11:13:45.448   44.400434283    8.963445830    79.5064   5   9   2.6984   2.0026   7.0613   1.0007   2.2438  -1.0901   0.00    0.0
2019/09/06 11:13:46.448   44.400457441    8.963426955    82.9662   5   9   2.6983   2.0028   7.0622   1.0006   2.2449  -1.0891   0.00    0.0
2019/09/06 11:13:47.448   44.400442728    8.963444870    74.7474   5   9   2.6982   2.0031   7.0630   1.0005   2.2460  -1.0879   0.00    0.0
2019/09/06 11:13:48.448   44.400441137    8.963455757    67.8031   5   9   2.6981   2.0034   7.0639   1.0004   2.2471  -1.0868   0.00    0.0
2019/09/06 11:13:50.448   44.400492763    8.963458292    77.9473   5   9   2.6980   2.0039   7.0655   1.0002   2.2493  -1.0846   0.00    0.0
2019/09/06 11:13:52.448   44.400465221    8.963432262    77.9123   5   9   2.6978   2.0044   7.0672   1.0001   2.2515  -1.0824   0.00    0.0
2019/09/06 11:13:53.448   44.400439242    8.963464406    80.3238   5   9   2.6977   2.0047   7.0681   1.0000   2.2526  -1.0813   0.00    0.0
2019/09/06 11:13:54.448   44.400414527    8.963453072    81.9787   5   9   2.6976   2.0050   7.0689   0.9999   2.2537  -1.0802   0.00    0.0
2019/09/06 11:13:55.448   44.400380565    8.963451646    88.2635   5   9   2.6976   2.0052   7.0697   0.9998   2.2548  -1.0790   0.00    0.0
2019/09/06 11:13:57.448   44.400412435    8.963448182    77.3544   5   9   2.6974   2.0058   7.0714   0.9996   2.2569  -1.0768   0.00    0.0
2019/09/06 11:14:00.448   44.400443708    8.963441411    82.4756   5   9   2.6971   2.0066   7.0739   0.9994   2.2602  -1.0735   0.00    0.0
2019/09/06 11:14:03.448   44.400476671    8.963454428    94.9655   5   9   2.6969   2.0074   7.0764   0.9991   2.2635  -1.0702   0.00    0.0
2019/09/06 11:14:04.448   44.400436629    8.963486921    92.6723   5   9   2.6968   2.0076   7.0773   0.9990   2.2646  -1.0690   0.00    0.0
2019/09/06 11:14:06.448   44.400435470    8.963461699    95.7261   5   9   2.6967   2.0082   7.0789   0.9989   2.2667  -1.0668   0.00    0.0
2019/09/06 11:14:08.448   44.400426831    8.963474708    89.2893   5   9   2.6965   2.0087   7.0806   0.9987   2.2689  -1.0646   0.00    0.0
2019/09/06 11:14:09.448   44.400458967    8.963452123    92.3940   5   9   2.6964   2.0090   7.0814   0.9986   2.2700  -1.0635   0.00    0.0
2019/09/06 11:14:10.448   44.400426713    8.963470221    88.4207   5   9   2.6963   2.0093   7.0823   0.9985   2.2711  -1.0623   0.00    0.0
2019/09/06 11:14:11.448   44.400453256    8.963515180    98.0083   5   9   2.6963   2.0095   7.0831   0.9984   2.2722  -1.0612   0.00    0.0
2019/09/06 11:14:12.448   44.400441319    8.963540316   102.8052   5   9   2.6962   2.0098   7.0839   0.9984   2.2733  -1.0601   0.00    0.0
2019/09/06 11:14:13.448   44.400451896    8.963540001   101.0512   5   9   2.6961   2.0101   7.0848   0.9983   2.2743  -1.0590   0.00    0.0
2019/09/06 11:14:14.448   44.400461797    8.963549279    99.8665   5   9   2.6960   2.0103   7.0856   0.9982   2.2754  -1.0579   0.00    0.0
2019/09/06 11:14:15.448   44.400480440    8.963523681    97.7546   5   9   2.6959   2.0106   7.0864   0.9981   2.2765  -1.0568   0.00    0.0
2019/09/06 11:14:16.448   44.400495366    8.963510137    95.4840   5   9   2.6959   2.0109   7.0873   0.9980   2.2776  -1.0557   0.00    0.0
2019/09/06 11:14:17.448   44.400458025    8.963521103    91.7507   5   9   2.6958   2.0112   7.0881   0.9979   2.2787  -1.0545   0.00    0.0
2019/09/06 11:14:18.448   44.400452399    8.963571330    91.2181   5   9   2.6957   2.0114   7.0889   0.9978   2.2798  -1.0534   0.00    0.0
2019/09/06 11:14:19.448   44.400485015    8.963543382    89.8243   5   9   2.6956   2.0117   7.0898   0.9978   2.2808  -1.0523   0.00    0.0
2019/09/06 11:14:20.448   44.400490584    8.963477556    86.9250   5   9   2.6955   2.0120   7.0906   0.9977   2.2819  -1.0512   0.00    0.0
2019/09/06 11:14:22.448   44.400532994    8.963515250   102.0001   5   9   2.6954   2.0125   7.0923   0.9975   2.2841  -1.0489   0.00    0.0
2019/09/06 11:14:23.448   44.400463743    8.963495959    85.4379   5   9   2.6953   2.0128   7.0931   0.9974   2.2852  -1.0478   0.00    0.0
2019/09/06 11:14:28.448   44.400513037    8.963410075    72.4865   5   9   2.6949   2.0142   7.0972   0.9970   2.2906  -1.0422   0.00    0.0
2019/09/06 11:14:31.448   44.400464372    8.963458362    74.1046   5   9   2.6947   2.0150   7.0997   0.9967   2.2938  -1.0388   0.00    0.0
2019/09/06 11:14:32.448   44.400467626    8.963459633    84.7105   5   9   2.6946   2.0153   7.1005   0.9967   2.2949  -1.0377   0.00    0.0
2019/09/06 11:14:36.448   44.400441087    8.963457576    93.1322   5   9   2.6943   2.0164   7.1038   0.9963   2.2992  -1.0332   0.00    0.0
2019/09/06 11:14:37.448   44.400465424    8.963426470    79.6398   5   9   2.6942   2.0166   7.1047   0.9962   2.3003  -1.0320   0.00    0.0
2019/09/06 11:14:38.448   44.400451402    8.963487574    91.6150   5   9   2.6941   2.0169   7.1055   0.9961   2.3014  -1.0309   0.00    0.0
2019/09/06 11:14:39.448   44.400453039    8.963494410    75.5303   5   9   2.6940   2.0172   7.1063   0.9961   2.3025  -1.0298   0.00    0.0
2019/09/06 11:14:40.448   44.400489896    8.963467040    90.3191   5   9   2.6940   2.0175   7.1071   0.9960   2.3035  -1.0287   0.00    0.0
2019/09/06 11:14:41.448   44.400506927    8.963504254    80.7775   5   9   2.6939   2.0177   7.1080   0.9959   2.3046  -1.0275   0.00    0.0
2019/09/06 11:14:42.448   44.400468310    8.963454762    78.6185   5   9   2.6938   2.0180   7.1088   0.9958   2.3057  -1.0264   0.00    0.0
2019/09/06 11:14:44.448   44.400514728    8.963452535    71.3774   5   9   2.6937   2.0186   7.1104   0.9956   2.3078  -1.0242   0.00    0.0
2019/09/06 11:14:45.448   44.400499664    8.963482436    90.0142   5   9   2.6936   2.0188   7.1112   0.9956   2.3089  -1.0230   0.00    0.0
2019/09/06 11:14:47.448   44.400489261    8.963434977    80.9467   5   8   2.8264   2.1310   7.1318   0.6385   2.3862  -1.2191   0.00    0.0
2019/09/06 11:14:48.448   44.400539715    8.963480121    85.2036   5   8   2.8263   2.1313   7.1325   0.6385   2.3871  -1.2179   0.00    0.0
2019/09/06 11:14:50.448   44.400481042    8.963506484   101.0170   5   9   2.6932   2.0202   7.1153   0.9951   2.3143  -1.0173   0.00    0.0
2019/09/06 11:14:52.448   44.400481391    8.963464844    72.3168   5   8   2.8259   2.1323   7.1356   0.6381   2.3908  -1.2129   0.00    0.0
2019/09/06 11:14:53.448   44.400475552    8.963513294    93.0555   5   8   2.8258   2.1325   7.1363   0.6381   2.3917  -1.2116   0.00    0.0
2019/09/06 11:14:54.448   44.400508498    8.963452538    93.0920   5   8   2.8257   2.1328   7.1371   0.6380   2.3926  -1.2103   0.00    0.0
2019/09/06 11:14:56.448   44.400478799    8.963465118    89.0520   5   9   2.6927   2.0219   7.1202   0.9946   2.3207  -1.0105   0.00    0.0
2019/09/06 11:14:57.448   44.400463242    8.963528085    96.4881   5   8   2.8255   2.1336   7.1393   0.6378   2.3954  -1.2066   0.00    0.0
2019/09/06 11:14:58.448   44.400457859    8.963457201    86.7717   5   9   2.6926   2.0225   7.1219   0.9945   2.3229  -1.0083   0.00    0.0
2019/09/06 11:15:00.448   44.400503127    8.963512179    98.5043   5   9   2.6924   2.0230   7.1235   0.9943   2.3250  -1.0060   0.00    0.0
2019/09/06 11:15:02.448   44.400463462    8.963526252    91.1681   5   9   2.6923   2.0236   7.1251   0.9941   2.3271  -1.0037   0.00    0.0
2019/09/06 11:15:03.448   44.400458852    8.963525804   109.9125   5   9   2.6922   2.0239   7.1259   0.9941   2.3282  -1.0026   0.00    0.0
2019/09/06 11:15:04.448   44.400432731    8.963443751    94.2213   5   9   2.6921   2.0241   7.1268   0.9940   2.3293  -1.0014   0.00    0.0
2019/09/06 11:15:05.448   44.400495552    8.963478443    90.0699   5   9   2.6921   2.0244   7.1276   0.9939   2.3303  -1.0003   0.00    0.0
2019/09/06 11:15:06.448   44.400457022    8.963496855    88.9593   5   9   2.6920   2.0247   7.1284   0.9938   2.3314  -0.9991   0.00    0.0
2019/09/06 11:15:07.448   44.400482426    8.963449280    85.1953   5   9   2.6919   2.0250   7.1292   0.9937   2.3325  -0.9980   0.00    0.0
2019/09/06 11:15:08.448   44.400455946    8.963498858    85.7892   5   9   2.6918   2.0253   7.1300   0.9936   2.3335  -0.9969   0.00    0.0
2019/09/06 11:15:09.448   44.400457885    8.963479243    95.9884   5   9   2.6918   2.0255   7.1308   0.9936   2.3346  -0.9957   0.00    0.0
2019/09/06 11:15:10.448   44.400425749    8.963497523    72.2498   5   9   2.6917   2.0258   7.1316   0.9935   2.3357  -0.9946   0.00    0.0
2019/09/06 11:15:12.448   44.400469387    8.963467679    92.3426   5   9   2.6915   2.0264   7.1332   0.9933   2.3378  -0.9923   0.00    0.0
2019/09/06 11:15:13.448   44.400473211    8.963434035    88.0844   5   9   2.6915   2.0267   7.1341   0.9932   2.3389  -0.9912   0.00    0.0
2019/09/06 11:15:14.448   44.400454064    8.963486698    89.8135   5   9   2.6914   2.0270   7.1349   0.9931   2.3399  -0.9900   0.00    0.0
2019/09/06 11:15:15.448   44.400436610    8.963440617    92.3894   5   9   2.6913   2.0272   7.1357   0.9931   2.3410  -0.9888   0.00    0.0
2019/09/06 11:15:17.448   44.400422989    8.963442488    89.8272   5   9   2.6912   2.0278   7.1373   0.9929   2.3431  -0.9866   0.00    0.0
2019/09/06 11:15:18.448   44.400438837    8.963437217    91.8791   5   9   2.6911   2.0281   7.1381   0.9928   2.3442  -0.9854   0.00    0.0
2019/09/06 11:15:19.448   44.400452954    8.963442242    89.3809   5   9   2.6910   2.0284   7.1389   0.9927   2.3453  -0.9843   0.00    0.0
2019/09/06 11:15:20.448   44.400455056    8.963463659    80.5956   5   9   2.6910   2.0287   7.1397   0.9926   2.3463  -0.9831   0.00    0.0
2019/09/06 11:15:21.448   44.400454520    8.963448221   104.7566   5   8   2.8233   2.1398   7.1573   0.6359   2.4173  -1.1761   0.00    0.0
2019/09/06 11:15:22.448   44.400451821    8.963455568    82.5940   5   8   2.8232   2.1400   7.1581   0.6358   2.4182  -1.1748   0.00    0.0
2019/09/06 11:15:23.448   44.400438200    8.963433825    91.0731   5   8   2.8231   2.1403   7.1588   0.6357   2.4192  -1.1735   0.00    0.0
2019/09/06 11:15:24.448   44.400465643    8.963497958    99.7344   5   8   2.8230   2.1405   7.1596   0.6357   2.4201  -1.1723   0.00    0.0
2019/09/06 11:15:25.448   44.400466004    8.963469219   100.8462   5   8   2.8229   2.1408   7.1603   0.6356   2.4210  -1.1710   0.00    0.0
2019/09/06 11:15:26.448   44.400440222    8.963466076    83.4069   5   8   2.8229   2.1411   7.1611   0.6355   2.4219  -1.1697   0.00    0.0
2019/09/06 11:15:27.448   44.400495112    8.963414602    69.0642   5   8   2.8228   2.1413   7.1618   0.6354   2.4228  -1.1685   0.00    0.0
2019/09/06 11:15:28.448   44.400486790    8.963434474    83.8178   5   8   2.8227   2.1416   7.1625   0.6353   2.4237  -1.1672   0.00    0.0
2019/09/06 11:15:29.448   44.400462909    8.963442355    88.4591   5   8   2.8226   2.1419   7.1633   0.6353   2.4246  -1.1659   0.00    0.0
2019/09/06 11:15:30.448   44.400497026    8.963395863    93.3160   5   8   2.8225   2.1421   7.1640   0.6352   2.4255  -1.1646   0.00    0.0
2019/09/06 11:15:31.448   44.400521345    8.963403689    75.1597   5   8   2.8224   2.1424   7.1648   0.6351   2.4264  -1.1633   0.00    0.0
2019/09/06 11:15:32.448   44.400532735    8.963463308    86.6807   5   9   2.6901   2.0321   7.1493   0.9916   2.3591  -0.9694   0.00    0.0
2019/09/06 11:15:33.448   44.400556124    8.963395885    78.0830   5   8   2.8223   2.1429   7.1663   0.6349   2.4282  -1.1608   0.00    0.0
2019/09/06 11:15:35.448   44.400563774    8.963465407    72.4163   5   9   2.6899   2.0329   7.1518   0.9914   2.3622  -0.9659   0.00    0.0
2019/09/06 11:15:37.448   44.400610319    8.963424173    65.1424   5   9   2.6897   2.0335   7.1534   0.9912   2.3643  -0.9636   0.00    0.0
2019/09/06 11:15:38.448   44.400572482    8.963457183    70.9370   5   9   2.6897   2.0338   7.1542   0.9911   2.3654  -0.9625   0.00    0.0
2019/09/06 11:15:39.448   44.400550037    8.963511906    85.7798   5   8   2.8217   2.1445   7.1707   0.6345   2.4337  -1.1531   0.00    0.0
2019/09/06 11:15:41.448   44.400502858    8.963496361    76.4410   5   8   2.8216   2.1450   7.1722   0.6343   2.4355  -1.1505   0.00    0.0
2019/09/06 11:15:42.448   44.400601404    8.963434655    82.0280   5   8   2.8215   2.1453   7.1729   0.6343   2.4364  -1.1492   0.00    0.0
2019/09/06 11:15:43.448   44.400470186    8.963482151    83.2838   5   8   2.8214   2.1455   7.1737   0.6342   2.4373  -1.1479   0.00    0.0
2019/09/06 11:15:44.448   44.400574367    8.963439199    85.0484   5   8   2.8213   2.1458   7.1744   0.6341   2.4382  -1.1466   0.00    0.0
2019/09/06 11:15:45.448   44.400545796    8.963433284    88.6860   5   8   2.8212   2.1461   7.1751   0.6340   2.4391  -1.1453   0.00    0.0
2019/09/06 11:15:46.448   44.400620260    8.963463065    89.4356   5   9   2.6891   2.0361   7.1605   0.9905   2.3738  -0.9532   0.00    0.0
2019/09/06 11:15:47.448   44.400593983    8.963428763    59.7326   5   9   2.6890   2.0364   7.1613   0.9904   2.3749  -0.9521   0.00    0.0
2019/09/06 11:15:48.448   44.400567030    8.963471881    80.6783   5   9   2.6890   2.0367   7.1621   0.9903   2.3759  -0.9509   0.00    0.0
2019/09/06 11:15:49.448   44.400598012    8.963478627    87.0229   5   9   2.6889   2.0369   7.1629   0.9902   2.3770  -0.9497   0.00    0.0
2019/09/06 11:15:50.448   44.400589492    8.963463334    90.9358   5   8   2.8208   2.1474   7.1788   0.6336   2.4436  -1.1389   0.00    0.0
2019/09/06 11:15:51.448   44.400549029    8.963446358    76.5087   5   8   2.8207   2.1476   7.1796   0.6336   2.4446  -1.1376   0.00    0.0
2019/09/06 11:15:52.448   44.400533421    8.963442699    80.5064   5   8   2.8206   2.1479   7.1803   0.6335   2.4455  -1.1363   0.00    0.0
2019/09/06 11:15:54.448   44.400570156    8.963413232    91.1618   5   8   2.8205   2.1484   7.1818   0.6333   2.4473  -1.1337   0.00    0.0
2019/09/06 11:15:55.448   44.400551361    8.963408421    91.3470   5   8   2.8204   2.1487   7.1825   0.6333   2.4482  -1.1324   0.00    0.0
2019/09/06 11:15:56.448   44.400572844    8.963461712    82.8757   5   8   2.8203   2.1490   7.1832   0.6332   2.4491  -1.1311   0.00    0.0
2019/09/06 11:15:57.448   44.400505417    8.963442993    96.1247   5   8   2.8202   2.1492   7.1840   0.6331   2.4500  -1.1298   0.00    0.0
2019/09/06 11:15:58.448   44.400509962    8.963494667    89.8969   5   8   2.8201   2.1495   7.1847   0.6330   2.4509  -1.1285   0.00    0.0
2019/09/06 11:15:59.448   44.400537761    8.963463339    77.9207   5   8   2.8200   2.1498   7.1854   0.6330   2.4518  -1.1272   0.00    0.0
2019/09/06 11:16:00.448   44.400513759    8.963438132    87.8314   5   8   2.8200   2.1500   7.1862   0.6329   2.4527  -1.1259   0.00    0.0
2019/09/06 11:16:01.448   44.400484566    8.963475911    89.5546   5   8   2.8199   2.1503   7.1869   0.6328   2.4536  -1.1246   0.00    0.0
2019/09/06 11:16:02.448   44.400532494    8.963484801    91.6110   5   8   2.8198   2.1505   7.1876   0.6327   2.4545  -1.1233   0.00    0.0
2019/09/06 11:16:03.448   44.400552802    8.963442352    97.7528   5   8   2.8197   2.1508   7.1884   0.6327   2.4554  -1.1220   0.00    0.0
2019/09/06 11:16:04.448   44.400478970    8.963466324    80.7769   5   8   2.8196   2.1511   7.1891   0.6326   2.4563  -1.1207   0.00    0.0
2019/09/06 11:16:05.448   44.400462261    8.963453070    89.9965   5   8   2.8195   2.1513   7.1898   0.6325   2.4572  -1.1194   0.00    0.0
2019/09/06 11:16:07.448   44.400448935    8.963449531    81.0039   5   8   2.8194   2.1519   7.1913   0.6324   2.4590  -1.1167   0.00    0.0
2019/09/06 11:16:08.448   44.400490679    8.963443128    83.8563   5   9   2.6876   2.0425   7.1779   0.9887   2.3969  -0.9276   0.00    0.0
2019/09/06 11:16:09.448   44.400499962    8.963532303    93.4287   5   9   2.6875   2.0428   7.1787   0.9886   2.3980  -0.9264   0.00    0.0
2019/09/06 11:16:10.448   44.400502722    8.963522926    77.5394   5   9   2.6875   2.0430   7.1795   0.9885   2.3990  -0.9253   0.00    0.0
2019/09/06 11:16:12.448   44.400505540    8.963504382    96.3265   5   9   2.6873   2.0436   7.1810   0.9883   2.4011  -0.9229   0.00    0.0
2019/09/06 11:16:14.448   44.400501725    8.963445885    83.9568   5   9   2.6872   2.0442   7.1826   0.9882   2.4032  -0.9206   0.00    0.0
2019/09/06 11:16:15.448   44.400491059    8.963484060    99.6651   5   9   2.6871   2.0445   7.1834   0.9881   2.4043  -0.9194   0.00    0.0
2019/09/06 11:16:18.448   44.400499374    8.963494941   104.9589   5   9   2.6869   2.0454   7.1857   0.9878   2.4074  -0.9159   0.00    0.0
2019/09/06 11:16:19.448   44.400499388    8.963463153    81.1812   5   9   2.6869   2.0457   7.1865   0.9878   2.4084  -0.9147   0.00    0.0
2019/09/06 11:16:20.448   44.400516622    8.963558304    83.9288   5   9   2.6868   2.0460   7.1873   0.9877   2.4095  -0.9135   0.00    0.0
2019/09/06 11:16:23.448   44.400552096    8.963481771    96.5740   5   9   2.6866   2.0469   7.1896   0.9874   2.4126  -0.9100   0.00    0.0
2019/09/06 11:16:24.448   44.400503523    8.963451653   105.8924   5   9   2.6865   2.0472   7.1904   0.9873   2.4136  -0.9088   0.00    0.0
2019/09/06 11:16:25.448   44.400542393    8.963540548   102.1680   5   9   2.6865   2.0474   7.1912   0.9873   2.4147  -0.9077   0.00    0.0
2019/09/06 11:16:26.448   44.400497660    8.963500754    99.0317   5   9   2.6864   2.0477   7.1919   0.9872   2.4157  -0.9065   0.00    0.0
2019/09/06 11:16:27.448   44.400536642    8.963484073    93.3323   5   9   2.6863   2.0480   7.1927   0.9871   2.4168  -0.9053   0.00    0.0
2019/09/06 11:16:31.448   44.400472287    8.963519846    81.1375   5   8   2.8174   2.1583   7.2087   0.6306   2.4805  -1.0852   0.00    0.0
2019/09/06 11:16:32.448   44.400430728    8.963520527    90.7060   5   9   2.6860   2.0495   7.1966   0.9867   2.4219  -0.8994   0.00    0.0
2019/09/06 11:16:34.448   44.400494064    8.963478001    77.7073   5   9   2.6859   2.0501   7.1981   0.9865   2.4240  -0.8971   0.00    0.0
2019/09/06 11:16:35.448   44.400482772    8.963482455    75.3882   5   9   2.6858   2.0504   7.1989   0.9864   2.4251  -0.8959   0.00    0.0
2019/09/06 11:16:36.448   44.400538133    8.963432415    77.6254   5   9   2.6857   2.0507   7.1997   0.9864   2.4261  -0.8947   0.00    0.0
2019/09/06 11:16:38.448   44.400504220    8.963434269    72.7414   5   9   2.6856   2.0513   7.2012   0.9862   2.4282  -0.8923   0.00    0.0
2019/09/06 11:16:40.448   44.400497130    8.963436591    73.1860   5   9   2.6855   2.0519   7.2028   0.9860   2.4302  -0.8900   0.00    0.0
2019/09/06 11:16:41.448   44.400481972    8.963471521    89.1212   5   9   2.6854   2.0522   7.2035   0.9859   2.4313  -0.8888   0.00    0.0
2019/09/06 11:16:42.448   44.400534978    8.963422560    78.7405   5   9   2.6854   2.0525   7.2043   0.9859   2.4323  -0.8876   0.00    0.0
2019/09/06 11:16:43.448   44.400517231    8.963497871    92.9622   5   9   2.6853   2.0528   7.2051   0.9858   2.4333  -0.8864   0.00    0.0
2019/09/06 11:16:44.448   44.400503966    8.963449671    87.4334   5   9   2.6852   2.0531   7.2058   0.9857   2.4344  -0.8852   0.00    0.0
2019/09/06 11:16:47.448   44.400507252    8.963416064    78.9019   5   8   2.8162   2.1627   7.2202   0.6294   2.4948  -1.0640   0.00    0.0
2019/09/06 11:16:48.448   44.400483532    8.963493313    82.0727   5   9   2.6850   2.0543   7.2089   0.9854   2.4385  -0.8805   0.00    0.0
2019/09/06 11:16:54.448   44.400489048    8.963381252   100.8072   5   8   2.8157   2.1646   7.2252   0.6288   2.5010  -1.0546   0.00    0.0
2019/09/06 11:17:16.448   44.400515291    8.963479232    67.8811   5   9   2.6833   2.0627   7.2301   0.9830   2.4673  -0.8470   0.00    0.0
2019/09/06 11:17:32.448   44.400482701    8.963457800   100.4348   5   9   2.6823   2.0676   7.2421   0.9817   2.4836  -0.8277   0.00    0.0
2019/09/06 11:17:39.448   44.400561875    8.963482086    97.8654   5  10   2.5138   1.9078   5.4633   1.3087   1.5433   1.9439   0.00    0.0
2019/09/06 11:17:48.448   44.400444933    8.963508734   107.9964   5   9   2.6814   2.0725   7.2539   0.9804   2.4998  -0.8083   0.00    0.0
2019/09/06 11:17:58.448   44.400365655    8.963553804   130.0172   5  10   2.5149   1.9095   5.4692   1.3095   1.5537   1.9494   0.00    0.0
2019/09/06 11:18:00.448   44.400469196    8.963512447   102.2076   5   9   2.6807   2.0762   7.2626   0.9794   2.5119  -0.7936   0.00    0.0
2019/09/06 11:18:03.448   44.400473309    8.963516651    95.7698   5   8   3.6757   2.3461   8.1758   1.9241   1.4946  -3.1713   0.00    0.0
2019/09/06 11:18:04.448   44.400467262    8.963523635    99.9432   5   8   3.6754   2.3461   8.1773   1.9235   1.4964  -3.1715   0.00    0.0
2019/09/06 11:18:05.448   44.400448392    8.963520510    80.5251   5   8   3.6751   2.3461   8.1788   1.9230   1.4981  -3.1717   0.00    0.0
2019/09/06 11:18:06.448   44.400470954    8.963499921   102.9068   5   9   2.6804   2.0781   7.2670   0.9789   2.5179  -0.7863   0.00    0.0
2019/09/06 11:18:09.448   44.400508095    8.963527330    78.1930   5   8   3.6739   2.3462   8.1848   1.9209   1.5050  -3.1725   0.00    0.0
2019/09/06 11:18:10.448   44.400559820    8.963445375    79.0281   5   9   2.6801   2.0793   7.2699   0.9785   2.5219  -0.7814   0.00    0.0
2019/09/06 11:18:11.448   44.400473732    8.963439246    89.5631   5   9   2.6801   2.0797   7.2706   0.9784   2.5229  -0.7801   0.00    0.0
2019/09/06 11:18:13.448   44.400516368    8.963485931    90.8859   5   9   2.6800   2.0803   7.2720   0.9783   2.5249  -0.7777   0.00    0.0
2019/09/06 11:18:34.448   44.400381834    8.963427161   118.7047   5  10   2.5171   1.9128   5.4797   1.3109   1.5729   1.9593   0.00    0.0
2019/09/06 11:18:40.448   44.400458355    8.963423886    96.8108   5   9   2.6785   2.0888   7.2912   0.9759   2.5518  -0.7442   0.00    0.0
2019/09/06 11:19:47.448   44.400572224    8.963463360   109.9622   5   9   3.5655   2.0919   6.9102   1.6371  -1.4749  -3.7074   0.00    0.0
2019/09/06 11:21:18.448   44.400408757    8.963504448   109.2420   5  11   2.2025   1.7470   4.6510   0.8495   0.5569   0.5578   0.00    0.0
2019/09/06 11:21:19.448   44.400389609    8.963491499   108.5246   5  11   2.2025   1.7470   4.6511   0.8494   0.5577   0.5582   0.00    0.0
2019/09/06 11:21:21.448   44.400384542    8.963484828   110.4106   5  11   2.2026   1.7471   4.6514   0.8491   0.5592   0.5589   0.00    0.0
2019/09/06 11:21:23.448   44.400404585    8.963440448   104.9042   5  11   2.2026   1.7471   4.6517   0.8488   0.5607   0.5596   0.00    0.0
2019/09/06 11:28:09.448   44.400461292    8.963528606   106.2631   5  10   2.5708   2.0557   5.0213   1.4188  -1.1352  -1.3848   0.00    0.0
2019/09/06 11:30:25.448   44.400507641    8.963550635    89.1903   5   9   2.9473   2.3061   5.7203   1.8613   1.2559   1.3660   0.00    0.0
2019/09/06 11:30:29.448   44.400468072    8.963529148   106.7369   5   9   2.9469   2.3059   5.7207   1.8604   1.2558   1.3638   0.00    0.0
2019/09/06 11:30:31.448   44.400451774    8.963476316    77.7484   5   9   2.9467   2.3058   5.7209   1.8600   1.2557   1.3627   0.00    0.0
2019/09/06 11:30:32.448   44.400481172    8.963461586    87.3178   5   9   2.9466   2.3057   5.7210   1.8597   1.2557   1.3622   0.00    0.0
2019/09/06 11:30:33.448   44.400478419    8.963454665    77.8633   5   9   2.9465   2.3056   5.7211   1.8595   1.2557   1.3616   0.00    0.0
2019/09/06 11:30:34.448   44.400487451    8.963470227    82.8161   5   9   2.9464   2.3056   5.7212   1.8593   1.2557   1.3611   0.00    0.0
2019/09/06 11:30:37.448   44.400413233    8.963511964   103.3065   5   9   2.9461   2.3054   5.7215   1.8586   1.2556   1.3595   0.00    0.0
2019/09/06 11:30:41.448   44.400466742    8.963515752    99.1282   5   8   3.5113   2.4147   9.3021   1.4413   2.6168  -3.4891   0.00    0.0
