% program   : RTKPOST ver.2.4.2
% inp file  : W:\ricerca\2018_2022_PhD_Lorenzo\codici\ReadRINEX-generated_by_Android-\Android_RINEX_data\geo++\merge_geopp_6sett.19o
% inp file  : W:\ricerca\2018_2022_PhD_Lorenzo\codici\ReadRINEX-generated_by_Android-\Android_RINEX_data\GENU\genu249l.19o
% inp file  : W:\ricerca\2018_2022_PhD_Lorenzo\codici\ReadRINEX-generated_by_Android-\Android_RINEX_data\GENU\genu249l.19n
% obs start : 2019/09/06 11:07:15.4 GPST (week2069 472035.4s)
% obs end   : 2019/09/06 11:30:41.4 GPST (week2069 473441.4s)
% pos mode  : kinematic
% freqs     : L1+L2+L5
% solution  : combined
% elev mask : 15.0 deg
% dynamics  : off
% tidecorr  : off
% ionos opt : broadcast
% tropo opt : saastamoinen
% ephemeris : broadcast
% navi sys  : gps glonass
% amb res   : continuous
% amb glo   : on
% val thres : 3.0
% antenna1  :                       ( 0.0000  0.0000  0.0000)
% antenna2  :                       ( 0.0000  0.0000  0.0000)
% ref pos   : 90.000000000    0.000000000 -6335367.6285
%
% (lat/lon/height=WGS84/ellipsoidal,Q=1:fix,2:float,3:sbas,4:dgps,5:single,6:ppp,ns=# of satellites)
%  GPST                  latitude(deg) longitude(deg)  height(m)   Q  ns   sdn(m)   sde(m)   sdu(m)  sdne(m)  sdeu(m)  sdun(m) age(s)  ratio
2019/09/06 11:07:16.448   44.400536543    8.963468651    79.6142   5   9  21.2132  21.2132  21.2132   0.0000   0.0000  -0.0000   0.45    0.0
2019/09/06 11:07:17.448   44.400562930    8.963412827    79.4011   5   9  21.2132  21.2132  21.2132  -0.0000  -0.0000  -0.0000   0.45    0.0
2019/09/06 11:07:19.448   44.400501644    8.963515231    85.1723   5   9  21.2132  21.2132  21.2132  -0.0000   0.0000   0.0000   0.45    0.0
2019/09/06 11:07:22.448   44.400534349    8.963499042    87.1882   5   9  21.2132  21.2132  21.2132  -0.0000  -0.0000   0.0000   0.45    0.0
2019/09/06 11:07:23.448   44.400500247    8.963560176   100.9335   5   9  21.2132  21.2132  21.2132  -0.0000  -0.0000  -0.0000   0.45    0.0
2019/09/06 11:07:26.448   44.400466874    8.963455546    83.3787   5   9  21.2132  21.2132  21.2132  -0.0000  -0.0000  -0.0000   0.45    0.0
2019/09/06 11:07:27.448   44.400435737    8.963464739    97.3272   5   9  21.2132  21.2132  21.2132   0.0000   0.0000   0.0000   0.45    0.0
2019/09/06 11:07:28.448   44.400489741    8.963529952    91.1657   5   9  21.2132  21.2132  21.2132   0.0000   0.0000  -0.0000   0.45    0.0
2019/09/06 11:07:32.448   44.400439770    8.963472493    85.5945   5   9  21.2132  21.2132  21.2132   0.0000  -0.0000   0.0000   0.45    0.0
2019/09/06 11:07:35.448   44.400468902    8.963481760    77.4931   5   9  21.2132  21.2132  21.2132   0.0000  -0.0000   0.0000   0.45    0.0
2019/09/06 11:07:36.448   44.400438627    8.963397648    93.4022   5   9  21.2132  21.2132  21.2132   0.0000   0.0000  -0.0000   0.45    0.0
2019/09/06 11:07:37.448   44.400420053    8.963390708    75.9529   5   9  21.2132  21.2132  21.2132  -0.0000  -0.0000   0.0000   0.45    0.0
2019/09/06 11:07:39.448   44.400510768    8.963468999    70.4043   5   9  21.2132  21.2132  21.2132   0.0000  -0.0000  -0.0000   0.45    0.0
2019/09/06 11:07:40.448   44.400415587    8.963401917    88.0603   5   9  21.2132  21.2132  21.2132  -0.0000   0.0000  -0.0000   0.45    0.0
2019/09/06 11:07:42.448   44.400551731    8.963458616    70.7753   5   9  21.2132  21.2132  21.2132  -0.0000  -0.0000  -0.0000   0.45    0.0
2019/09/06 11:07:44.448   44.400388615    8.963360614    82.4361   5   9  21.2132  21.2132  21.2132   0.0000  -0.0000  -0.0000   0.45    0.0
2019/09/06 11:07:45.448   44.400522997    8.963433497    77.8900   5   9  21.2132  21.2132  21.2132   0.0000  -0.0000  -0.0000   0.45    0.0
2019/09/06 11:07:46.448   44.400476930    8.963468486    81.4040   5   9  21.2132  21.2132  21.2132  -0.0000  -0.0000   0.0000   0.45    0.0
2019/09/06 11:07:47.448   44.400428071    8.963374820    78.1954   5   9  21.2132  21.2132  21.2132  -0.0000  -0.0000  -0.0000   0.45    0.0
2019/09/06 11:07:48.448   44.400481850    8.963473409    75.9955   5   9  21.2132  21.2132  21.2132  -0.0000  -0.0000   0.0000   0.45    0.0
2019/09/06 11:07:49.448   44.400439455    8.963440100   101.6040   5   9  21.2132  21.2132  21.2132   0.0000   0.0000   0.0000   0.45    0.0
2019/09/06 11:07:50.448   44.400476576    8.963383662    81.6390   5   9  21.2132  21.2132  21.2132  -0.0000   0.0000  -0.0000   0.45    0.0
2019/09/06 11:07:51.448   44.400416765    8.963403846    80.6513   5   9  21.2132  21.2132  21.2132   0.0000  -0.0000  -0.0000   0.45    0.0
2019/09/06 11:07:52.448   44.400424861    8.963378913    71.4013   5   9  21.2132  21.2132  21.2132  -0.0000   0.0000  -0.0000   0.45    0.0
2019/09/06 11:07:54.448   44.400422414    8.963371564    68.8361   5   9  21.2132  21.2132  21.2132  -0.0000   0.0000   0.0000   0.45    0.0
2019/09/06 11:08:02.448   44.400340750    8.963424096    61.7521   5   9  21.2132  21.2132  21.2132  -0.0000   0.0000  -0.0000   0.45    0.0
2019/09/06 11:08:03.448   44.400392029    8.963412222    69.1121   5   9  21.2132  21.2132  21.2132   0.0000  -0.0000  -0.0000   0.45    0.0
2019/09/06 11:08:06.448   44.400397949    8.963446218    62.0074   5   9  21.2132  21.2132  21.2132  -0.0000  -0.0000  -0.0000   0.45    0.0
2019/09/06 11:08:07.448   44.400462627    8.963430209    87.7074   5   9  21.2132  21.2132  21.2132   0.0000   0.0000   0.0000   0.45    0.0
2019/09/06 11:08:08.448   44.400420037    8.963444832    64.6883   5   9  21.2132  21.2132  21.2132  -0.0000  -0.0000   0.0000   0.45    0.0
2019/09/06 11:08:10.448   44.400446482    8.963360330    57.3113   5   9  21.2132  21.2132  21.2132   0.0000   0.0000   0.0000   0.45    0.0
2019/09/06 11:08:12.448   44.400453001    8.963403785    71.7834   5   9  21.2132  21.2132  21.2132   0.0000   0.0000   0.0000   0.45    0.0
2019/09/06 11:08:16.448   44.400508852    8.963490566    89.5042   5   9  21.2132  21.2132  21.2132  -0.0000  -0.0000  -0.0000   0.45    0.0
2019/09/06 11:08:18.448   44.400493579    8.963482794    87.7877   5   9  21.2132  21.2132  21.2132   0.0000   0.0000   0.0000   0.45    0.0
2019/09/06 11:08:20.448   44.400503408    8.963499103    92.2540   5   9  21.2132  21.2132  21.2132   0.0000  -0.0000   0.0000   0.45    0.0
2019/09/06 11:08:22.448   44.400490633    8.963542267    88.8822   5   9  21.2132  21.2132  21.2132   0.0000   0.0000  -0.0000   0.45    0.0
2019/09/06 11:08:23.448   44.400454079    8.963549025    98.5247   5   9  21.2132  21.2132  21.2132   0.0000  -0.0000  -0.0000   0.45    0.0
2019/09/06 11:08:26.448   44.400492691    8.963605777   109.7686   5   9  21.2132  21.2132  21.2132  -0.0000  -0.0000  -0.0000   0.45    0.0
2019/09/06 11:08:27.448   44.400458833    8.963606490   102.4178   5   9  21.2132  21.2132  21.2132   0.0000   0.0000  -0.0000   0.45    0.0
2019/09/06 11:08:28.448   44.400459833    8.963545069    94.9887   5   9  21.2132  21.2132  21.2132  -0.0000  -0.0000   0.0000   0.45    0.0
2019/09/06 11:08:29.448   44.400461356    8.963565687   102.3821   5   9  21.2132  21.2132  21.2132   0.0000   0.0000  -0.0000   0.45    0.0
2019/09/06 11:08:34.448   44.400468044    8.963541981    92.9833   5   9  21.2132  21.2132  21.2132  -0.0000  -0.0000  -0.0000   0.45    0.0
2019/09/06 11:08:35.448   44.400491280    8.963546534    97.8578   5   9  21.2132  21.2132  21.2132  -0.0000  -0.0000   0.0000   0.45    0.0
2019/09/06 11:08:37.448   44.400459605    8.963522125    85.5285   5   9  21.2132  21.2132  21.2132   0.0000   0.0000   0.0000   0.45    0.0
2019/09/06 11:08:38.448   44.400473653    8.963509400    76.5730   5   9  21.2132  21.2132  21.2132  -0.0000  -0.0000  -0.0000   0.45    0.0
2019/09/06 11:08:39.448   44.400435440    8.963496721    83.4651   5   9  21.2132  21.2132  21.2132  -0.0000  -0.0000  -0.0000   0.45    0.0
2019/09/06 11:08:40.448   44.400459620    8.963507140    88.0976   5   9  21.2132  21.2132  21.2132   0.0000   0.0000  -0.0000   0.45    0.0
2019/09/06 11:08:42.448   44.400439400    8.963517583    83.2246   5   9  21.2132  21.2132  21.2132  -0.0000   0.0000  -0.0000   0.45    0.0
2019/09/06 11:08:43.448   44.400474526    8.963504458    85.1814   5   9  21.2132  21.2132  21.2132  -0.0000   0.0000   0.0000   0.45    0.0
2019/09/06 11:08:44.448   44.400501626    8.963461935    85.1167   5   9  21.2132  21.2132  21.2132  -0.0000   0.0000   0.0000   0.45    0.0
2019/09/06 11:08:45.448   44.400503176    8.963487365   101.0070   5   9  21.2132  21.2132  21.2132  -0.0000   0.0000  -0.0000   0.45    0.0
2019/09/06 11:08:47.448   44.400482873    8.963515937    86.2306   5   9  21.2132  21.2132  21.2132  -0.0000  -0.0000  -0.0000   0.45    0.0
2019/09/06 11:08:48.448   44.400472466    8.963426086    71.7827   5   9  21.2132  21.2132  21.2132   0.0000   0.0000  -0.0000   0.45    0.0
2019/09/06 11:08:49.448   44.400474044    8.963473339    79.6991   5   9  21.2132  21.2132  21.2132  -0.0000  -0.0000  -0.0000   0.45    0.0
2019/09/06 11:08:51.448   44.400539678    8.963430789    86.0263   5   9  21.2132  21.2132  21.2132  -0.0000   0.0000   0.0000   0.45    0.0
2019/09/06 11:08:53.448   44.400477055    8.963468077    98.7301   5   9  21.2132  21.2132  21.2132   0.0000  -0.0000  -0.0000   0.45    0.0
2019/09/06 11:08:55.448   44.400518419    8.963485454    95.0461   5   9  21.2132  21.2132  21.2132  -0.0000   0.0000  -0.0000   0.45    0.0
2019/09/06 11:08:56.448   44.400448985    8.963497730    87.7097   5   9  21.2132  21.2132  21.2132  -0.0000   0.0000  -0.0000   0.45    0.0
2019/09/06 11:08:58.448   44.400517917    8.963482433   100.3812   5   9  21.2132  21.2132  21.2132   0.0000   0.0000   0.0000   0.45    0.0
2019/09/06 11:08:59.448   44.400531044    8.963491549   102.5201   5   9  21.2132  21.2132  21.2132  -0.0000  -0.0000   0.0000   0.45    0.0
2019/09/06 11:09:00.448   44.400490085    8.963505883   103.8847   5   9  21.2132  21.2132  21.2132  -0.0000  -0.0000   0.0000   0.45    0.0
2019/09/06 11:09:02.448   44.400489590    8.963556949    91.9214   5   9  21.2132  21.2132  21.2132  -0.0000  -0.0000  -0.0000   0.45    0.0
2019/09/06 11:09:03.448   44.400494136    8.963520767   102.0265   5   9  21.2132  21.2132  21.2132  -0.0000   0.0000  -0.0000   0.45    0.0
2019/09/06 11:09:05.448   44.400490522    8.963503549    94.2470   5   9  21.2132  21.2132  21.2132  -0.0000   0.0000   0.0000   0.45    0.0
2019/09/06 11:09:06.448   44.400479743    8.963485614    94.1100   5   9  21.2132  21.2132  21.2132  -0.0000  -0.0000  -0.0000   0.45    0.0
2019/09/06 11:09:08.448   44.400478267    8.963523365    81.1246   5   9  21.2132  21.2132  21.2132   0.0000   0.0000   0.0000   0.45    0.0
2019/09/06 11:09:10.448   44.400517977    8.963506744    92.9084   5   9  21.2132  21.2132  21.2132  -0.0000  -0.0000   0.0000   0.45    0.0
2019/09/06 11:09:14.448   44.400515720    8.963450323    90.1373   5   9  21.2132  21.2132  21.2132   0.0000   0.0000  -0.0000   0.45    0.0
2019/09/06 11:09:15.448   44.400522810    8.963422364    87.6547   5   9  21.2132  21.2132  21.2132   0.0000  -0.0000  -0.0000   0.45    0.0
2019/09/06 11:09:21.448   44.400454587    8.963416974    81.0034   5   9  21.2132  21.2132  21.2132   0.0000  -0.0000  -0.0000   0.45    0.0
2019/09/06 11:09:22.448   44.400450154    8.963462669    84.2428   5   9  21.2132  21.2132  21.2132  -0.0000   0.0000   0.0000   0.45    0.0
2019/09/06 11:09:28.448   44.400467737    8.963442861    83.2009   5   9  21.2132  21.2132  21.2132  -0.0000  -0.0000  -0.0000   0.45    0.0
2019/09/06 11:09:29.448   44.400420478    8.963424337    64.1042   5   9  21.2132  21.2132  21.2132  -0.0000   0.0000   0.0000   0.45    0.0
2019/09/06 11:09:31.448   44.400438451    8.963501904    76.8617   5   9  21.2132  21.2132  21.2132  -0.0000   0.0000   0.0000   0.45    0.0
2019/09/06 11:09:32.448   44.400472862    8.963460196    82.9366   5   9  21.2132  21.2132  21.2132  -0.0000   0.0000   0.0000   0.45    0.0
2019/09/06 11:09:34.448   44.400503480    8.963474368    83.8737   5   9  21.2132  21.2132  21.2132   0.0000  -0.0000   0.0000   0.45    0.0
2019/09/06 11:09:39.448   44.400463696    8.963489085    75.4721   5   9  21.2132  21.2132  21.2132  -0.0000   0.0000  -0.0000   0.45    0.0
2019/09/06 11:09:42.448   44.400491923    8.963471939    80.2699   5   9  21.2132  21.2132  21.2132   0.0000  -0.0000   0.0000   0.45    0.0
2019/09/06 11:09:43.448   44.400430422    8.963485400    93.4029   5   9  21.2132  21.2132  21.2132   0.0000   0.0000   0.0000   0.45    0.0
2019/09/06 11:09:54.448   44.400470484    8.963409445    65.4071   5   9  21.2132  21.2132  21.2132  -0.0000   0.0000  -0.0000   0.45    0.0
2019/09/06 11:09:55.448   44.400467040    8.963480457    74.4453   5   9  21.2132  21.2132  21.2132   0.0000   0.0000  -0.0000   0.45    0.0
2019/09/06 11:09:56.448   44.400492879    8.963468643    71.1454   5   9  21.2132  21.2132  21.2132   0.0000   0.0000  -0.0000   0.45    0.0
2019/09/06 11:09:57.448   44.400481116    8.963482810    89.3011   5   9  21.2132  21.2132  21.2132   0.0000  -0.0000  -0.0000   0.45    0.0
2019/09/06 11:10:16.448   44.400454743    8.963543003   102.5485   5   9  21.2132  21.2132  21.2132   0.0000  -0.0000  -0.0000   0.45    0.0
2019/09/06 11:10:17.448   44.400436282    8.963497738    83.2382   5   9  21.2132  21.2132  21.2132  -0.0000   0.0000  -0.0000   0.45    0.0
2019/09/06 11:10:19.448   44.400415851    8.963533527   102.0918   5   9  21.2132  21.2132  21.2132  -0.0000  -0.0000   0.0000   0.45    0.0
2019/09/06 11:10:21.448   44.400485201    8.963516661   103.3055   5   9  21.2132  21.2132  21.2132  -0.0000   0.0000  -0.0000   0.45    0.0
2019/09/06 11:10:22.448   44.400480890    8.963494744    86.1092   5   9  21.2132  21.2132  21.2132   0.0000   0.0000  -0.0000   0.45    0.0
2019/09/06 11:10:24.448   44.400447669    8.963522865    91.2041   5   9  21.2132  21.2132  21.2132   0.0000  -0.0000   0.0000   0.45    0.0
2019/09/06 11:10:25.448   44.400504570    8.963481684   106.0041   5   9  21.2132  21.2132  21.2132  -0.0000   0.0000   0.0000   0.45    0.0
2019/09/06 11:10:27.448   44.400463292    8.963551268   106.1784   5   9  21.2132  21.2132  21.2132  -0.0000  -0.0000   0.0000   0.45    0.0
2019/09/06 11:10:28.448   44.400473858    8.963541799    97.7774   5   9  21.2132  21.2132  21.2132   0.0000  -0.0000   0.0000   0.45    0.0
2019/09/06 11:10:32.448   44.400457693    8.963547471   100.0836   5   9  21.2132  21.2132  21.2132   0.0000   0.0000   0.0000   0.45    0.0
2019/09/06 11:10:33.448   44.400463124    8.963532710   101.4976   5   9  21.2132  21.2132  21.2132  -0.0000   0.0000   0.0000   0.45    0.0
2019/09/06 11:10:35.448   44.400555747    8.963529350   114.6701   5   9  21.2132  21.2132  21.2132  -0.0000   0.0000   0.0000   0.45    0.0
2019/09/06 11:10:38.448   44.400485761    8.963545741   100.1639   5   9  21.2132  21.2132  21.2132  -0.0000  -0.0000  -0.0000   0.45    0.0
2019/09/06 11:10:39.448   44.400538521    8.963541878   110.0924   5   9  21.2132  21.2132  21.2132   0.0000  -0.0000  -0.0000   0.45    0.0
2019/09/06 11:10:40.448   44.400531510    8.963515777   114.6310   5   9  21.2132  21.2132  21.2132  -0.0000  -0.0000  -0.0000   0.45    0.0
2019/09/06 11:10:41.448   44.400521745    8.963516703   102.7408   5   9  21.2132  21.2132  21.2132   0.0000  -0.0000   0.0000   0.45    0.0
2019/09/06 11:10:42.448   44.400557267    8.963500164   109.1671   5   9  21.2132  21.2132  21.2132   0.0000  -0.0000   0.0000   0.45    0.0
2019/09/06 11:10:43.448   44.400516939    8.963557006   103.3877   5   9  21.2132  21.2132  21.2132  -0.0000  -0.0000  -0.0000   0.45    0.0
2019/09/06 11:10:44.448   44.400477275    8.963566344    98.8753   5   9  21.2132  21.2132  21.2132   0.0000   0.0000   0.0000   0.45    0.0
2019/09/06 11:10:46.448   44.400512530    8.963523602    92.5079   5   9  21.2132  21.2132  21.2132  -0.0000  -0.0000  -0.0000   0.45    0.0
2019/09/06 11:10:47.448   44.400538381    8.963455035    85.7592   5   9  21.2132  21.2132  21.2132  -0.0000  -0.0000  -0.0000   0.45    0.0
2019/09/06 11:10:48.448   44.400504284    8.963519545    95.4611   5   9  21.2132  21.2132  21.2132   0.0000   0.0000  -0.0000   0.45    0.0
2019/09/06 11:10:51.448   44.400472685    8.963474355    91.0880   5   9  21.2132  21.2132  21.2132   0.0000   0.0000  -0.0000   0.45    0.0
2019/09/06 11:10:52.448   44.400465423    8.963511630    75.2524   5   9  21.2132  21.2132  21.2132  -0.0000   0.0000   0.0000   0.45    0.0
2019/09/06 11:10:53.448   44.400480697    8.963455151    86.4632   5   9  21.2132  21.2132  21.2132   0.0000   0.0000   0.0000   0.45    0.0
2019/09/06 11:10:54.448   44.400478081    8.963439394    81.9783   5   9  21.2132  21.2132  21.2132   0.0000   0.0000   0.0000   0.45    0.0
2019/09/06 11:10:55.448   44.400496068    8.963500448    85.1835   5   9  21.2132  21.2132  21.2132  -0.0000   0.0000   0.0000   0.45    0.0
2019/09/06 11:11:05.448   44.400484759    8.963526697    87.0522   5   9  21.2132  21.2132  21.2132   0.0000   0.0000   0.0000   0.45    0.0
2019/09/06 11:11:08.448   44.400510963    8.963457049    88.7493   5   9  21.2132  21.2132  21.2132   0.0000   0.0000   0.0000   0.45    0.0
2019/09/06 11:11:10.448   44.400509164    8.963449562    93.4960   5   9  21.2132  21.2132  21.2132  -0.0000  -0.0000   0.0000   0.45    0.0
2019/09/06 11:11:12.448   44.400462024    8.963459382    85.1568   5   9  21.2132  21.2132  21.2132  -0.0000  -0.0000   0.0000   0.45    0.0
2019/09/06 11:11:15.448   44.400525314    8.963431617    94.6624   5   9  21.2132  21.2132  21.2132  -0.0000   0.0000  -0.0000   0.45    0.0
2019/09/06 11:11:17.448   44.400450692    8.963516932    91.8711   5   9  21.2132  21.2132  21.2132   0.0000   0.0000   0.0000   0.45    0.0
2019/09/06 11:11:19.448   44.400454074    8.963497380    90.0675   5   9  21.2132  21.2132  21.2132   0.0000   0.0000  -0.0000   0.45    0.0
2019/09/06 11:11:22.448   44.400417362    8.963509976    78.5174   5   9  21.2132  21.2132  21.2132   0.0000   0.0000   0.0000   0.45    0.0
2019/09/06 11:11:23.448   44.400449822    8.963480675    90.6007   5   9  21.2132  21.2132  21.2132  -0.0000  -0.0000  -0.0000   0.45    0.0
2019/09/06 11:11:24.448   44.400406742    8.963485210    85.0401   5   9  21.2132  21.2132  21.2132  -0.0000  -0.0000  -0.0000   0.45    0.0
2019/09/06 11:11:25.448   44.400420159    8.963464962    87.7435   5   9  21.2132  21.2132  21.2132  -0.0000   0.0000   0.0000   0.45    0.0
2019/09/06 11:11:27.448   44.400432820    8.963539438    84.7190   5   9  21.2132  21.2132  21.2132  -0.0000  -0.0000  -0.0000   0.45    0.0
2019/09/06 11:11:28.448   44.400491720    8.963445165    92.8994   5   9  21.2132  21.2132  21.2132  -0.0000  -0.0000  -0.0000   0.45    0.0
2019/09/06 11:11:31.448   44.400445310    8.963416941    79.1998   5   9  21.2132  21.2132  21.2132  -0.0000   0.0000   0.0000   0.45    0.0
2019/09/06 11:11:33.448   44.400428650    8.963428748    86.3844   5   9  21.2132  21.2132  21.2132  -0.0000  -0.0000  -0.0000   0.45    0.0
2019/09/06 11:11:35.448   44.400459341    8.963403147    74.6105   5   9  21.2132  21.2132  21.2132  -0.0000  -0.0000   0.0000   0.45    0.0
2019/09/06 11:11:36.448   44.400429021    8.963499962    90.7073   5   9  21.2132  21.2132  21.2132   0.0000   0.0000  -0.0000   0.45    0.0
2019/09/06 11:11:37.448   44.400436748    8.963436522    83.2538   5   9  21.2132  21.2132  21.2132   0.0000  -0.0000  -0.0000   0.45    0.0
2019/09/06 11:11:38.448   44.400444415    8.963425116    69.5235   5   9  21.2132  21.2132  21.2132  -0.0000   0.0000   0.0000   0.45    0.0
2019/09/06 11:11:39.448   44.400454677    8.963441333    85.2785   5   9  21.2132  21.2132  21.2132   0.0000  -0.0000  -0.0000   0.45    0.0
2019/09/06 11:11:40.448   44.400465871    8.963473886    82.6428   5   9  21.2132  21.2132  21.2132  -0.0000   0.0000   0.0000   0.45    0.0
2019/09/06 11:11:42.448   44.400538767    8.963459905    88.2359   5   9  21.2132  21.2132  21.2132  -0.0000   0.0000  -0.0000   0.45    0.0
2019/09/06 11:11:44.448   44.400448720    8.963485103    92.1650   5   9  21.2132  21.2132  21.2132   0.0000   0.0000   0.0000   0.45    0.0
2019/09/06 11:11:47.448   44.400480863    8.963481857    94.3744   5   9  21.2132  21.2132  21.2132   0.0000  -0.0000  -0.0000   0.45    0.0
2019/09/06 11:11:48.448   44.400502201    8.963446563    94.2780   5   9  21.2132  21.2132  21.2132  -0.0000   0.0000   0.0000   0.45    0.0
2019/09/06 11:11:49.448   44.400465238    8.963497150    94.8876   5   9  21.2132  21.2132  21.2132  -0.0000   0.0000   0.0000   0.45    0.0
2019/09/06 11:11:50.448   44.400452807    8.963496838    91.1213   5   9  21.2132  21.2132  21.2132   0.0000  -0.0000  -0.0000   0.45    0.0
2019/09/06 11:11:51.448   44.400469530    8.963467159    89.5583   5   9  21.2132  21.2132  21.2132  -0.0000   0.0000   0.0000   0.45    0.0
2019/09/06 11:11:52.448   44.400504839    8.963524777    91.9232   5   9  21.2132  21.2132  21.2132  -0.0000   0.0000  -0.0000   0.45    0.0
2019/09/06 11:11:53.448   44.400478744    8.963500477    86.5856   5   9  21.2132  21.2132  21.2132   0.0000   0.0000   0.0000   0.45    0.0
2019/09/06 11:11:54.448   44.400505682    8.963526640    93.8702   5   9  21.2132  21.2132  21.2132  -0.0000   0.0000   0.0000   0.45    0.0
2019/09/06 11:11:56.448   44.400432824    8.963515313    95.7417   5   9  21.2132  21.2132  21.2132   0.0000  -0.0000  -0.0000   0.45    0.0
2019/09/06 11:11:57.448   44.400446061    8.963512711    87.7656   5   9  21.2132  21.2132  21.2132  -0.0000  -0.0000   0.0000   0.45    0.0
2019/09/06 11:11:59.448   44.400480945    8.963484442    87.3416   5   9  21.2132  21.2132  21.2132   0.0000   0.0000  -0.0000   0.45    0.0
2019/09/06 11:12:00.448   44.400500588    8.963447362    86.6495   5   9  21.2132  21.2132  21.2132  -0.0000  -0.0000   0.0000   0.45    0.0
2019/09/06 11:12:01.448   44.400462338    8.963523854    90.4694   5   9  21.2132  21.2132  21.2132  -0.0000  -0.0000  -0.0000   0.45    0.0
2019/09/06 11:12:02.448   44.400501917    8.963493585    98.6390   5   9  21.2132  21.2132  21.2132  -0.0000  -0.0000  -0.0000   0.45    0.0
2019/09/06 11:12:03.448   44.400503529    8.963504377    97.7574   5   9  21.2132  21.2132  21.2132   0.0000  -0.0000  -0.0000   0.45    0.0
2019/09/06 11:12:04.448   44.400482231    8.963515405   100.7735   5   9  21.2132  21.2132  21.2132   0.0000  -0.0000  -0.0000   0.45    0.0
2019/09/06 11:12:07.448   44.400438371    8.963562649    93.9093   5   9  21.2132  21.2132  21.2132   0.0000  -0.0000  -0.0000   0.45    0.0
2019/09/06 11:12:11.448   44.400485452    8.963531428   105.7631   5   9  21.2132  21.2132  21.2132   0.0000   0.0000   0.0000   0.45    0.0
2019/09/06 11:12:13.448   44.400451990    8.963504180    96.1529   5   9  21.2132  21.2132  21.2132  -0.0000  -0.0000  -0.0000   0.45    0.0
2019/09/06 11:12:14.448   44.400460194    8.963511342    98.0128   5   9  21.2132  21.2132  21.2132   0.0000  -0.0000   0.0000   0.45    0.0
2019/09/06 11:12:15.448   44.400427552    8.963528376    99.6724   5   9  21.2132  21.2132  21.2132   0.0000   0.0000   0.0000   0.45    0.0
2019/09/06 11:12:16.448   44.400424821    8.963506799    83.6266   5   9  21.2132  21.2132  21.2132  -0.0000  -0.0000  -0.0000   0.45    0.0
2019/09/06 11:12:17.448   44.400463516    8.963466774    84.9166   5   9  21.2132  21.2132  21.2132  -0.0000   0.0000  -0.0000   0.45    0.0
2019/09/06 11:12:18.448   44.400445490    8.963500436    88.9531   5   9  21.2132  21.2132  21.2132  -0.0000   0.0000   0.0000   0.45    0.0
2019/09/06 11:12:19.448   44.400410454    8.963553524    85.2875   5   9  21.2132  21.2132  21.2132  -0.0000   0.0000  -0.0000   0.45    0.0
2019/09/06 11:12:21.448   44.400459592    8.963505086    93.9389   5   9  21.2132  21.2132  21.2132   0.0000   0.0000   0.0000   0.45    0.0
2019/09/06 11:12:22.448   44.400449856    8.963513690    96.2628   5   9  21.2132  21.2132  21.2132  -0.0000   0.0000  -0.0000   0.45    0.0
2019/09/06 11:12:23.448   44.400475519    8.963501690    95.8328   5   9  21.2132  21.2132  21.2132   0.0000  -0.0000  -0.0000   0.45    0.0
2019/09/06 11:12:24.448   44.400472029    8.963518209    93.6150   5   9  21.2132  21.2132  21.2132  -0.0000  -0.0000   0.0000   0.45    0.0
2019/09/06 11:12:25.448   44.400458248    8.963526607   101.5023   5   9  21.2132  21.2132  21.2132  -0.0000   0.0000  -0.0000   0.45    0.0
2019/09/06 11:12:26.448   44.400454119    8.963535932    85.4119   5   9  21.2132  21.2132  21.2132   0.0000  -0.0000  -0.0000   0.45    0.0
2019/09/06 11:12:27.448   44.400410771    8.963485021    95.7102   5   9  21.2132  21.2132  21.2132  -0.0000  -0.0000   0.0000   0.45    0.0
2019/09/06 11:12:28.448   44.400481232    8.963490771    84.6307   5   9  21.2132  21.2132  21.2132  -0.0000  -0.0000  -0.0000   0.45    0.0
2019/09/06 11:12:30.448   44.400491749    8.963461166    84.6563   5   9  21.2132  21.2132  21.2132   0.0000   0.0000   0.0000   0.45    0.0
2019/09/06 11:12:31.448   44.400488806    8.963489309    87.1149   5   9  21.2132  21.2132  21.2132  -0.0000   0.0000   0.0000   0.45    0.0
2019/09/06 11:12:32.448   44.400449374    8.963505258    79.6500   5   9  21.2132  21.2132  21.2132  -0.0000  -0.0000   0.0000   0.45    0.0
2019/09/06 11:12:33.448   44.400452727    8.963541771    89.4496   5   9  21.2132  21.2132  21.2132   0.0000   0.0000   0.0000   0.45    0.0
2019/09/06 11:12:34.448   44.400457951    8.963567141    94.7714   5   9  21.2132  21.2132  21.2132  -0.0000   0.0000   0.0000   0.45    0.0
2019/09/06 11:12:35.448   44.400465730    8.963516989    91.2516   5   9  21.2132  21.2132  21.2132  -0.0000  -0.0000   0.0000   0.45    0.0
2019/09/06 11:12:36.448   44.400467013    8.963515783    78.0848   5   9  21.2132  21.2132  21.2132  -0.0000  -0.0000  -0.0000   0.45    0.0
2019/09/06 11:12:37.448   44.400482429    8.963515253    83.9412   5   9  21.2132  21.2132  21.2132   0.0000  -0.0000  -0.0000   0.45    0.0
2019/09/06 11:12:38.448   44.400456882    8.963529363    88.6214   5   9  21.2132  21.2132  21.2132  -0.0000   0.0000   0.0000   0.45    0.0
2019/09/06 11:12:40.448   44.400529040    8.963490808    84.5227   5   9  21.2132  21.2132  21.2132  -0.0000  -0.0000   0.0000   0.45    0.0
2019/09/06 11:12:41.448   44.400498561    8.963440721    79.4372   5   9  21.2132  21.2132  21.2132   0.0000  -0.0000  -0.0000   0.45    0.0
2019/09/06 11:12:42.448   44.400512782    8.963504950    81.3159   5   9  21.2132  21.2132  21.2132   0.0000  -0.0000   0.0000   0.45    0.0
2019/09/06 11:12:46.448   44.400530928    8.963419024    79.9862   5   9  21.2132  21.2132  21.2132   0.0000  -0.0000  -0.0000   0.45    0.0
2019/09/06 11:12:47.448   44.400541365    8.963434435    78.5867   5   9  21.2132  21.2132  21.2132   0.0000  -0.0000   0.0000   0.45    0.0
2019/09/06 11:12:48.448   44.400556108    8.963454945    88.3602   5   9  21.2132  21.2132  21.2132  -0.0000  -0.0000   0.0000   0.45    0.0
2019/09/06 11:12:49.448   44.400513845    8.963461815    83.2304   5   9  21.2132  21.2132  21.2132  -0.0000  -0.0000   0.0000   0.45    0.0
2019/09/06 11:12:50.448   44.400536373    8.963425327    88.6900   5   9  21.2132  21.2132  21.2132  -0.0000   0.0000   0.0000   0.45    0.0
2019/09/06 11:12:52.448   44.400529930    8.963466748    78.4235   5   9  21.2132  21.2132  21.2132   0.0000  -0.0000   0.0000   0.45    0.0
2019/09/06 11:12:53.448   44.400531962    8.963401028    81.6281   5   9  21.2132  21.2132  21.2132  -0.0000   0.0000  -0.0000   0.45    0.0
2019/09/06 11:12:54.448   44.400469387    8.963474718    97.2988   5   9  21.2132  21.2132  21.2132   0.0000   0.0000  -0.0000   0.45    0.0
2019/09/06 11:12:55.448   44.400492786    8.963497565    83.3155   5   9  21.2132  21.2132  21.2132   0.0000  -0.0000   0.0000   0.45    0.0
2019/09/06 11:12:56.448   44.400510266    8.963482636    71.8517   5   9  21.2132  21.2132  21.2132   0.0000   0.0000  -0.0000   0.45    0.0
2019/09/06 11:12:58.448   44.400464588    8.963461694    69.0278   5   9  21.2132  21.2132  21.2132   0.0000  -0.0000  -0.0000   0.45    0.0
2019/09/06 11:12:59.448   44.400512001    8.963442590    72.7125   5   9  21.2132  21.2132  21.2132  -0.0000   0.0000   0.0000   0.45    0.0
2019/09/06 11:13:00.448   44.400488452    8.963456741    72.7143   5   9  21.2132  21.2132  21.2132  -0.0000  -0.0000  -0.0000   0.45    0.0
2019/09/06 11:13:01.448   44.400528399    8.963433315    66.5168   5   9  21.2132  21.2132  21.2132  -0.0000   0.0000  -0.0000   0.45    0.0
2019/09/06 11:13:02.448   44.400496767    8.963432111    83.7878   5   9  21.2132  21.2132  21.2132  -0.0000   0.0000   0.0000   0.45    0.0
2019/09/06 11:13:03.448   44.400438758    8.963411938    80.5346   5   9  21.2132  21.2132  21.2132  -0.0000  -0.0000   0.0000   0.45    0.0
2019/09/06 11:13:04.448   44.400459087    8.963479080    79.6437   5   9  21.2132  21.2132  21.2132   0.0000  -0.0000  -0.0000   0.45    0.0
2019/09/06 11:13:05.448   44.400453235    8.963470188    71.1923   5   9  21.2132  21.2132  21.2132   0.0000  -0.0000   0.0000   0.45    0.0
2019/09/06 11:13:11.448   44.400443077    8.963460654    83.5306   5   9  21.2132  21.2132  21.2132  -0.0000   0.0000   0.0000   0.45    0.0
2019/09/06 11:13:12.448   44.400451529    8.963370547    73.2734   5   9  21.2132  21.2132  21.2132  -0.0000   0.0000   0.0000   0.45    0.0
2019/09/06 11:13:14.448   44.400429284    8.963426500    80.2518   5   9  21.2132  21.2132  21.2132   0.0000   0.0000  -0.0000   0.45    0.0
2019/09/06 11:13:15.448   44.400453387    8.963449050    80.2720   5   9  21.2132  21.2132  21.2132   0.0000   0.0000  -0.0000   0.45    0.0
2019/09/06 11:13:16.448   44.400450854    8.963408162    78.9717   5   9  21.2132  21.2132  21.2132  -0.0000  -0.0000  -0.0000   0.45    0.0
2019/09/06 11:13:18.448   44.400455813    8.963444640    85.9293   5   9  21.2132  21.2132  21.2132   0.0000  -0.0000  -0.0000   0.45    0.0
2019/09/06 11:13:19.448   44.400478740    8.963466769    92.4287   5   9  21.2132  21.2132  21.2132   0.0000   0.0000  -0.0000   0.45    0.0
2019/09/06 11:13:20.448   44.400435464    8.963455607    80.6485   5   9  21.2132  21.2132  21.2132  -0.0000  -0.0000   0.0000   0.45    0.0
2019/09/06 11:13:21.448   44.400502885    8.963483613    87.3838   5   9  21.2132  21.2132  21.2132  -0.0000  -0.0000  -0.0000   0.45    0.0
2019/09/06 11:13:22.448   44.400492645    8.963486731    94.6001   5   9  21.2132  21.2132  21.2132   0.0000  -0.0000  -0.0000   0.45    0.0
2019/09/06 11:13:23.448   44.400461423    8.963465832    86.1763   5   9  21.2132  21.2132  21.2132   0.0000  -0.0000   0.0000   0.45    0.0
2019/09/06 11:13:24.448   44.400513408    8.963474300    91.1047   5   9  21.2132  21.2132  21.2132  -0.0000  -0.0000  -0.0000   0.45    0.0
2019/09/06 11:13:25.448   44.400481176    8.963462272    91.2360   5   9  21.2132  21.2132  21.2132  -0.0000  -0.0000  -0.0000   0.45    0.0
2019/09/06 11:13:26.448   44.400453017    8.963486369    95.4229   5   9  21.2132  21.2132  21.2132  -0.0000  -0.0000  -0.0000   0.45    0.0
2019/09/06 11:13:27.448   44.400462318    8.963485445    91.1614   5   9  21.2132  21.2132  21.2132  -0.0000  -0.0000  -0.0000   0.45    0.0
2019/09/06 11:13:28.448   44.400554196    8.963465292    96.3153   5   9  21.2132  21.2132  21.2132   0.0000  -0.0000  -0.0000   0.45    0.0
2019/09/06 11:13:30.448   44.400528698    8.963490397   110.4508   5   9  21.2132  21.2132  21.2132   0.0000  -0.0000  -0.0000   0.45    0.0
2019/09/06 11:13:31.448   44.400497734    8.963556471    99.5784   5   9  21.2132  21.2132  21.2132  -0.0000   0.0000   0.0000   0.45    0.0
2019/09/06 11:13:32.448   44.400511898    8.963452879    91.8394   5   9  21.2132  21.2132  21.2132  -0.0000   0.0000   0.0000   0.45    0.0
2019/09/06 11:13:33.448   44.400497805    8.963470132    90.4253   5   9  21.2132  21.2132  21.2132   0.0000   0.0000   0.0000   0.45    0.0
2019/09/06 11:13:34.448   44.400454350    8.963475173    97.8024   5   9  21.2132  21.2132  21.2132   0.0000   0.0000   0.0000   0.45    0.0
2019/09/06 11:13:35.448   44.400575760    8.963472599    85.8664   5   9  21.2132  21.2132  21.2132  -0.0000  -0.0000   0.0000   0.45    0.0
2019/09/06 11:13:36.448   44.400471670    8.963510037    88.6944   5   9  21.2132  21.2132  21.2132   0.0000   0.0000  -0.0000   0.45    0.0
2019/09/06 11:13:37.448   44.400473935    8.963466826    69.2568   5   9  21.2132  21.2132  21.2132  -0.0000  -0.0000   0.0000   0.45    0.0
2019/09/06 11:13:38.448   44.400489678    8.963481484    83.5457   5   9  21.2132  21.2132  21.2132   0.0000   0.0000  -0.0000   0.45    0.0
2019/09/06 11:13:39.448   44.400465062    8.963449638    67.1536   5   9  21.2132  21.2132  21.2132  -0.0000   0.0000  -0.0000   0.45    0.0
2019/09/06 11:13:40.448   44.400523149    8.963481277    84.5688   5   9  21.2132  21.2132  21.2132   0.0000  -0.0000  -0.0000   0.45    0.0
2019/09/06 11:13:42.448   44.400453492    8.963453264    64.4883   5   9  21.2132  21.2132  21.2132   0.0000  -0.0000  -0.0000   0.45    0.0
2019/09/06 11:13:43.448   44.400499664    8.963433950    78.6212   5   9  21.2132  21.2132  21.2132  -0.0000   0.0000   0.0000   0.45    0.0
2019/09/06 11:13:44.448   44.400486186    8.963404847    71.8506   5   9  21.2132  21.2132  21.2132  -0.0000  -0.0000   0.0000   0.45    0.0
2019/09/06 11:13:45.448   44.400434283    8.963445830    79.5064   5   9  21.2132  21.2132  21.2132  -0.0000  -0.0000   0.0000   0.45    0.0
2019/09/06 11:13:46.448   44.400457441    8.963426955    82.9662   5   9  21.2132  21.2132  21.2132   0.0000   0.0000   0.0000   0.45    0.0
2019/09/06 11:13:47.448   44.400442728    8.963444870    74.7474   5   9  21.2132  21.2132  21.2132  -0.0000   0.0000  -0.0000   0.45    0.0
2019/09/06 11:13:48.448   44.400441137    8.963455757    67.8031   5   9  21.2132  21.2132  21.2132   0.0000   0.0000   0.0000   0.45    0.0
2019/09/06 11:13:50.448   44.400492763    8.963458292    77.9473   5   9  21.2132  21.2132  21.2132   0.0000  -0.0000   0.0000   0.45    0.0
2019/09/06 11:13:52.448   44.400465221    8.963432262    77.9123   5   9  21.2132  21.2132  21.2132  -0.0000   0.0000  -0.0000   0.45    0.0
2019/09/06 11:13:53.448   44.400439242    8.963464406    80.3238   5   9  21.2132  21.2132  21.2132  -0.0000  -0.0000   0.0000   0.45    0.0
2019/09/06 11:13:54.448   44.400414527    8.963453072    81.9787   5   9  21.2132  21.2132  21.2132  -0.0000  -0.0000   0.0000   0.45    0.0
2019/09/06 11:13:55.448   44.400380565    8.963451646    88.2635   5   9  21.2132  21.2132  21.2132   0.0000   0.0000   0.0000   0.45    0.0
2019/09/06 11:13:57.448   44.400412435    8.963448182    77.3544   5   9  21.2132  21.2132  21.2132  -0.0000  -0.0000   0.0000   0.45    0.0
2019/09/06 11:14:00.448   44.400443708    8.963441411    82.4756   5   9  21.2132  21.2132  21.2132   0.0000  -0.0000  -0.0000   0.45    0.0
2019/09/06 11:14:03.448   44.400476671    8.963454428    94.9655   5   9  21.2132  21.2132  21.2132   0.0000  -0.0000   0.0000   0.45    0.0
2019/09/06 11:14:04.448   44.400436629    8.963486921    92.6723   5   9  21.2132  21.2132  21.2132  -0.0000   0.0000   0.0000   0.45    0.0
2019/09/06 11:14:06.448   44.400435470    8.963461699    95.7261   5   9  21.2132  21.2132  21.2132  -0.0000   0.0000   0.0000   0.45    0.0
2019/09/06 11:14:08.448   44.400426831    8.963474708    89.2893   5   9  21.2132  21.2132  21.2132   0.0000  -0.0000   0.0000   0.45    0.0
2019/09/06 11:14:09.448   44.400458967    8.963452123    92.3940   5   9  21.2132  21.2132  21.2132  -0.0000  -0.0000   0.0000   0.45    0.0
2019/09/06 11:14:10.448   44.400426713    8.963470221    88.4207   5   9  21.2132  21.2132  21.2132   0.0000  -0.0000  -0.0000   0.45    0.0
2019/09/06 11:14:11.448   44.400453256    8.963515180    98.0083   5   9  21.2132  21.2132  21.2132  -0.0000   0.0000   0.0000   0.45    0.0
2019/09/06 11:14:12.448   44.400441319    8.963540316   102.8052   5   9  21.2132  21.2132  21.2132  -0.0000   0.0000   0.0000   0.45    0.0
2019/09/06 11:14:13.448   44.400451896    8.963540001   101.0512   5   9  21.2132  21.2132  21.2132  -0.0000  -0.0000  -0.0000   0.45    0.0
2019/09/06 11:14:14.448   44.400461797    8.963549279    99.8665   5   9  21.2132  21.2132  21.2132   0.0000  -0.0000   0.0000   0.45    0.0
2019/09/06 11:14:15.448   44.400480440    8.963523681    97.7546   5   9  21.2132  21.2132  21.2132  -0.0000   0.0000   0.0000   0.45    0.0
2019/09/06 11:14:16.448   44.400495366    8.963510137    95.4840   5   9  21.2132  21.2132  21.2132  -0.0000   0.0000  -0.0000   0.45    0.0
2019/09/06 11:14:17.448   44.400458025    8.963521103    91.7507   5   9  21.2132  21.2132  21.2132   0.0000  -0.0000  -0.0000   0.45    0.0
2019/09/06 11:14:18.448   44.400452399    8.963571330    91.2181   5   9  21.2132  21.2132  21.2132  -0.0000   0.0000   0.0000   0.45    0.0
2019/09/06 11:14:19.448   44.400485015    8.963543382    89.8243   5   9  21.2132  21.2132  21.2132  -0.0000   0.0000   0.0000   0.45    0.0
2019/09/06 11:14:20.448   44.400490584    8.963477556    86.9250   5   9  21.2132  21.2132  21.2132  -0.0000  -0.0000  -0.0000   0.45    0.0
2019/09/06 11:14:22.448   44.400532994    8.963515250   102.0001   5   9  21.2132  21.2132  21.2132   0.0000  -0.0000  -0.0000   0.45    0.0
2019/09/06 11:14:23.448   44.400463743    8.963495959    85.4379   5   9  21.2132  21.2132  21.2132  -0.0000  -0.0000   0.0000   0.45    0.0
2019/09/06 11:14:28.448   44.400513037    8.963410075    72.4865   5   9  21.2132  21.2132  21.2132  -0.0000  -0.0000  -0.0000   0.45    0.0
2019/09/06 11:14:31.448   44.400464372    8.963458362    74.1046   5   9  21.2132  21.2132  21.2132   0.0000  -0.0000   0.0000   0.45    0.0
2019/09/06 11:14:32.448   44.400467626    8.963459633    84.7105   5   9  21.2132  21.2132  21.2132   0.0000  -0.0000   0.0000   0.45    0.0
2019/09/06 11:14:36.448   44.400441087    8.963457576    93.1322   5   9  21.2132  21.2132  21.2132  -0.0000  -0.0000  -0.0000   0.45    0.0
2019/09/06 11:14:37.448   44.400465424    8.963426470    79.6398   5   9  21.2132  21.2132  21.2132  -0.0000   0.0000   0.0000   0.45    0.0
2019/09/06 11:14:38.448   44.400451402    8.963487574    91.6150   5   9  21.2132  21.2132  21.2132  -0.0000   0.0000   0.0000   0.45    0.0
2019/09/06 11:14:39.448   44.400453039    8.963494410    75.5303   5   9  21.2132  21.2132  21.2132  -0.0000   0.0000   0.0000   0.45    0.0
2019/09/06 11:14:40.448   44.400489896    8.963467040    90.3191   5   9  21.2132  21.2132  21.2132  -0.0000   0.0000  -0.0000   0.45    0.0
2019/09/06 11:14:41.448   44.400506927    8.963504254    80.7775   5   9  21.2132  21.2132  21.2132  -0.0000   0.0000  -0.0000   0.45    0.0
2019/09/06 11:14:42.448   44.400468310    8.963454762    78.6185   5   9  21.2132  21.2132  21.2132  -0.0000   0.0000   0.0000   0.45    0.0
2019/09/06 11:14:44.448   44.400514728    8.963452535    71.3774   5   9  21.2132  21.2132  21.2132   0.0000   0.0000  -0.0000   0.45    0.0
2019/09/06 11:14:45.448   44.400499664    8.963482436    90.0142   5   9  21.2132  21.2132  21.2132   0.0000  -0.0000  -0.0000   0.45    0.0
2019/09/06 11:14:47.448   44.400489261    8.963434977    80.9467   5   8  21.2132  21.2132  21.2132   0.0000  -0.0000  -0.0000   0.45    0.0
2019/09/06 11:14:48.448   44.400539715    8.963480121    85.2036   5   8  21.2132  21.2132  21.2132  -0.0000   0.0000   0.0000   0.45    0.0
2019/09/06 11:14:50.448   44.400481042    8.963506484   101.0170   5   9  21.2132  21.2132  21.2132  -0.0000  -0.0000  -0.0000   0.45    0.0
2019/09/06 11:14:52.448   44.400481391    8.963464844    72.3168   5   8  21.2132  21.2132  21.2132   0.0000  -0.0000   0.0000   0.45    0.0
2019/09/06 11:14:53.448   44.400475552    8.963513294    93.0555   5   8  21.2132  21.2132  21.2132   0.0000  -0.0000  -0.0000   0.45    0.0
2019/09/06 11:14:54.448   44.400508498    8.963452538    93.0920   5   8  21.2132  21.2132  21.2132  -0.0000  -0.0000  -0.0000   0.45    0.0
2019/09/06 11:14:56.448   44.400478799    8.963465118    89.0520   5   9  21.2132  21.2132  21.2132   0.0000   0.0000  -0.0000   0.45    0.0
2019/09/06 11:14:57.448   44.400463242    8.963528085    96.4881   5   8  21.2132  21.2132  21.2132   0.0000   0.0000  -0.0000   0.45    0.0
2019/09/06 11:14:58.448   44.400457859    8.963457201    86.7717   5   9  21.2132  21.2132  21.2132   0.0000  -0.0000  -0.0000   0.45    0.0
2019/09/06 11:15:00.448   44.400503127    8.963512179    98.5043   5   9  21.2132  21.2132  21.2132  -0.0000   0.0000  -0.0000   0.45    0.0
2019/09/06 11:15:02.448   44.400463462    8.963526252    91.1681   5   9  21.2132  21.2132  21.2132  -0.0000  -0.0000  -0.0000   0.45    0.0
2019/09/06 11:15:03.448   44.400458852    8.963525804   109.9125   5   9  21.2132  21.2132  21.2132  -0.0000   0.0000   0.0000   0.45    0.0
2019/09/06 11:15:04.448   44.400432731    8.963443751    94.2213   5   9  21.2132  21.2132  21.2132   0.0000  -0.0000  -0.0000   0.45    0.0
2019/09/06 11:15:05.448   44.400495552    8.963478443    90.0699   5   9  21.2132  21.2132  21.2132   0.0000  -0.0000   0.0000   0.45    0.0
2019/09/06 11:15:06.448   44.400457022    8.963496855    88.9593   5   9  21.2132  21.2132  21.2132  -0.0000   0.0000  -0.0000   0.45    0.0
2019/09/06 11:15:07.448   44.400482426    8.963449280    85.1953   5   9  21.2132  21.2132  21.2132  -0.0000   0.0000   0.0000   0.45    0.0
2019/09/06 11:15:08.448   44.400455946    8.963498858    85.7892   5   9  21.2132  21.2132  21.2132   0.0000   0.0000  -0.0000   0.45    0.0
2019/09/06 11:15:09.448   44.400457885    8.963479243    95.9884   5   9  21.2132  21.2132  21.2132  -0.0000   0.0000  -0.0000   0.45    0.0
2019/09/06 11:15:10.448   44.400425749    8.963497523    72.2498   5   9  21.2132  21.2132  21.2132  -0.0000   0.0000   0.0000   0.45    0.0
2019/09/06 11:15:12.448   44.400469387    8.963467679    92.3426   5   9  21.2132  21.2132  21.2132   0.0000   0.0000  -0.0000   0.45    0.0
2019/09/06 11:15:13.448   44.400473211    8.963434035    88.0844   5   9  21.2132  21.2132  21.2132   0.0000  -0.0000  -0.0000   0.45    0.0
2019/09/06 11:15:14.448   44.400454064    8.963486698    89.8135   5   9  21.2132  21.2132  21.2132  -0.0000  -0.0000  -0.0000   0.45    0.0
2019/09/06 11:15:15.448   44.400436610    8.963440617    92.3894   5   9  21.2132  21.2132  21.2132   0.0000   0.0000  -0.0000   0.45    0.0
2019/09/06 11:15:17.448   44.400422989    8.963442488    89.8272   5   9  21.2132  21.2132  21.2132   0.0000  -0.0000  -0.0000   0.45    0.0
2019/09/06 11:15:18.448   44.400438837    8.963437217    91.8791   5   9  21.2132  21.2132  21.2132  -0.0000   0.0000  -0.0000   0.45    0.0
2019/09/06 11:15:19.448   44.400452954    8.963442242    89.3809   5   9  21.2132  21.2132  21.2132   0.0000  -0.0000  -0.0000   0.45    0.0
2019/09/06 11:15:20.448   44.400455056    8.963463659    80.5956   5   9  21.2132  21.2132  21.2132   0.0000  -0.0000  -0.0000   0.45    0.0
2019/09/06 11:15:21.448   44.400454520    8.963448221   104.7566   5   8  21.2132  21.2132  21.2132  -0.0000   0.0000  -0.0000   0.45    0.0
2019/09/06 11:15:22.448   44.400451821    8.963455568    82.5940   5   8  21.2132  21.2132  21.2132  -0.0000   0.0000  -0.0000   0.45    0.0
2019/09/06 11:15:23.448   44.400438200    8.963433825    91.0731   5   8  21.2132  21.2132  21.2132  -0.0000   0.0000  -0.0000   0.45    0.0
2019/09/06 11:15:24.448   44.400465643    8.963497958    99.7344   5   8  21.2132  21.2132  21.2132   0.0000   0.0000   0.0000   0.45    0.0
2019/09/06 11:15:25.448   44.400466004    8.963469219   100.8462   5   8  21.2132  21.2132  21.2132   0.0000  -0.0000  -0.0000   0.45    0.0
2019/09/06 11:15:26.448   44.400440222    8.963466076    83.4069   5   8  21.2132  21.2132  21.2132   0.0000  -0.0000  -0.0000   0.45    0.0
2019/09/06 11:15:27.448   44.400495112    8.963414602    69.0642   5   8  21.2132  21.2132  21.2132  -0.0000  -0.0000   0.0000   0.45    0.0
2019/09/06 11:15:28.448   44.400486790    8.963434474    83.8178   5   8  21.2132  21.2132  21.2132   0.0000   0.0000   0.0000   0.45    0.0
2019/09/06 11:15:29.448   44.400462909    8.963442355    88.4591   5   8  21.2132  21.2132  21.2132   0.0000   0.0000   0.0000   0.45    0.0
2019/09/06 11:15:30.448   44.400497026    8.963395863    93.3160   5   8  21.2132  21.2132  21.2132   0.0000  -0.0000   0.0000   0.45    0.0
2019/09/06 11:15:31.448   44.400521345    8.963403689    75.1597   5   8  21.2132  21.2132  21.2132   0.0000  -0.0000  -0.0000   0.45    0.0
2019/09/06 11:15:32.448   44.400532735    8.963463308    86.6807   5   9  21.2132  21.2132  21.2132  -0.0000  -0.0000  -0.0000   0.45    0.0
2019/09/06 11:15:33.448   44.400556124    8.963395885    78.0830   5   8  21.2132  21.2132  21.2132  -0.0000  -0.0000  -0.0000   0.45    0.0
2019/09/06 11:15:35.448   44.400563774    8.963465407    72.4163   5   9  21.2132  21.2132  21.2132  -0.0000  -0.0000   0.0000   0.45    0.0
2019/09/06 11:15:37.448   44.400610319    8.963424173    65.1424   5   9  21.2132  21.2132  21.2132  -0.0000   0.0000   0.0000   0.45    0.0
2019/09/06 11:15:38.448   44.400572482    8.963457183    70.9370   5   9  21.2132  21.2132  21.2132  -0.0000   0.0000   0.0000   0.45    0.0
2019/09/06 11:15:39.448   44.400550037    8.963511906    85.7798   5   8  21.2132  21.2132  21.2132  -0.0000   0.0000  -0.0000   0.45    0.0
2019/09/06 11:15:41.448   44.400502858    8.963496361    76.4410   5   8  21.2132  21.2132  21.2132  -0.0000  -0.0000  -0.0000   0.45    0.0
2019/09/06 11:15:42.448   44.400601404    8.963434655    82.0280   5   8  21.2132  21.2132  21.2132  -0.0000   0.0000   0.0000   0.45    0.0
2019/09/06 11:15:43.448   44.400470186    8.963482151    83.2838   5   8  21.2132  21.2132  21.2132   0.0000  -0.0000  -0.0000   0.45    0.0
2019/09/06 11:15:44.448   44.400574367    8.963439199    85.0484   5   8  21.2132  21.2132  21.2132   0.0000   0.0000  -0.0000   0.45    0.0
2019/09/06 11:15:45.448   44.400545796    8.963433284    88.6860   5   8  21.2132  21.2132  21.2132   0.0000   0.0000   0.0000   0.45    0.0
2019/09/06 11:15:46.448   44.400620260    8.963463065    89.4356   5   9  21.2132  21.2132  21.2132   0.0000  -0.0000  -0.0000   0.45    0.0
2019/09/06 11:15:47.448   44.400593983    8.963428763    59.7326   5   9  21.2132  21.2132  21.2132  -0.0000  -0.0000  -0.0000   0.45    0.0
2019/09/06 11:15:48.448   44.400567030    8.963471881    80.6783   5   9  21.2132  21.2132  21.2132  -0.0000   0.0000   0.0000   0.45    0.0
2019/09/06 11:15:49.448   44.400598012    8.963478627    87.0229   5   9  21.2132  21.2132  21.2132   0.0000   0.0000   0.0000   0.45    0.0
2019/09/06 11:15:50.448   44.400589492    8.963463334    90.9358   5   8  21.2132  21.2132  21.2132  -0.0000   0.0000   0.0000   0.45    0.0
2019/09/06 11:15:51.448   44.400549029    8.963446358    76.5087   5   8  21.2132  21.2132  21.2132   0.0000   0.0000  -0.0000   0.45    0.0
2019/09/06 11:15:52.448   44.400533421    8.963442699    80.5064   5   8  21.2132  21.2132  21.2132  -0.0000   0.0000   0.0000   0.45    0.0
2019/09/06 11:15:54.448   44.400570156    8.963413232    91.1618   5   8  21.2132  21.2132  21.2132   0.0000   0.0000   0.0000   0.45    0.0
2019/09/06 11:15:55.448   44.400551361    8.963408421    91.3470   5   8  21.2132  21.2132  21.2132  -0.0000  -0.0000   0.0000   0.45    0.0
2019/09/06 11:15:56.448   44.400572844    8.963461712    82.8757   5   8  21.2132  21.2132  21.2132  -0.0000  -0.0000   0.0000   0.45    0.0
2019/09/06 11:15:57.448   44.400505417    8.963442993    96.1247   5   8  21.2132  21.2132  21.2132  -0.0000  -0.0000   0.0000   0.45    0.0
2019/09/06 11:15:58.448   44.400509962    8.963494667    89.8969   5   8  21.2132  21.2132  21.2132  -0.0000   0.0000  -0.0000   0.45    0.0
2019/09/06 11:15:59.448   44.400537761    8.963463339    77.9207   5   8  21.2132  21.2132  21.2132  -0.0000  -0.0000  -0.0000   0.45    0.0
2019/09/06 11:16:00.448   44.400513759    8.963438132    87.8314   5   8  21.2132  21.2132  21.2132   0.0000  -0.0000  -0.0000   0.45    0.0
2019/09/06 11:16:01.448   44.400484566    8.963475911    89.5546   5   8  21.2132  21.2132  21.2132   0.0000  -0.0000   0.0000   0.45    0.0
2019/09/06 11:16:02.448   44.400532494    8.963484801    91.6110   5   8  21.2132  21.2132  21.2132  -0.0000  -0.0000   0.0000   0.45    0.0
2019/09/06 11:16:03.448   44.400552802    8.963442352    97.7528   5   8  21.2132  21.2132  21.2132  -0.0000   0.0000  -0.0000   0.45    0.0
2019/09/06 11:16:04.448   44.400478970    8.963466324    80.7769   5   8  21.2132  21.2132  21.2132  -0.0000  -0.0000   0.0000   0.45    0.0
2019/09/06 11:16:05.448   44.400462261    8.963453070    89.9965   5   8  21.2132  21.2132  21.2132   0.0000  -0.0000   0.0000   0.45    0.0
2019/09/06 11:16:07.448   44.400448935    8.963449531    81.0039   5   8  21.2132  21.2132  21.2132   0.0000   0.0000   0.0000   0.45    0.0
2019/09/06 11:16:08.448   44.400490679    8.963443128    83.8563   5   9  21.2132  21.2132  21.2132   0.0000  -0.0000  -0.0000   0.45    0.0
2019/09/06 11:16:09.448   44.400499962    8.963532303    93.4287   5   9  21.2132  21.2132  21.2132  -0.0000   0.0000   0.0000   0.45    0.0
2019/09/06 11:16:10.448   44.400502722    8.963522926    77.5394   5   9  21.2132  21.2132  21.2132  -0.0000   0.0000   0.0000   0.45    0.0
2019/09/06 11:16:12.448   44.400505540    8.963504382    96.3265   5   9  21.2132  21.2132  21.2132   0.0000  -0.0000  -0.0000   0.45    0.0
2019/09/06 11:16:14.448   44.400501725    8.963445885    83.9568   5   9  21.2132  21.2132  21.2132  -0.0000   0.0000  -0.0000   0.45    0.0
2019/09/06 11:16:15.448   44.400491059    8.963484060    99.6651   5   9  21.2132  21.2132  21.2132  -0.0000  -0.0000  -0.0000   0.45    0.0
2019/09/06 11:16:18.448   44.400499374    8.963494941   104.9589   5   9  21.2132  21.2132  21.2132   0.0000  -0.0000  -0.0000   0.45    0.0
2019/09/06 11:16:19.448   44.400499388    8.963463153    81.1812   5   9  21.2132  21.2132  21.2132  -0.0000  -0.0000   0.0000   0.45    0.0
2019/09/06 11:16:20.448   44.400516622    8.963558304    83.9288   5   9  21.2132  21.2132  21.2132  -0.0000  -0.0000  -0.0000   0.45    0.0
2019/09/06 11:16:23.448   44.400552096    8.963481771    96.5740   5   9  21.2132  21.2132  21.2132  -0.0000   0.0000  -0.0000   0.45    0.0
2019/09/06 11:16:24.448   44.400503523    8.963451653   105.8924   5   9  21.2132  21.2132  21.2132   0.0000  -0.0000  -0.0000   0.45    0.0
2019/09/06 11:16:25.448   44.400542393    8.963540548   102.1680   5   9  21.2132  21.2132  21.2132  -0.0000  -0.0000   0.0000   0.45    0.0
2019/09/06 11:16:26.448   44.400497660    8.963500754    99.0317   5   9  21.2132  21.2132  21.2132   0.0000  -0.0000  -0.0000   0.45    0.0
2019/09/06 11:16:27.448   44.400536642    8.963484073    93.3323   5   9  21.2132  21.2132  21.2132  -0.0000   0.0000   0.0000   0.45    0.0
2019/09/06 11:16:31.448   44.400472287    8.963519846    81.1375   5   8  21.2132  21.2132  21.2132   0.0000   0.0000  -0.0000   0.45    0.0
2019/09/06 11:16:32.448   44.400430728    8.963520527    90.7060   5   9  21.2132  21.2132  21.2132  -0.0000  -0.0000  -0.0000   0.45    0.0
2019/09/06 11:16:34.448   44.400494064    8.963478001    77.7073   5   9  21.2132  21.2132  21.2132  -0.0000   0.0000   0.0000   0.45    0.0
2019/09/06 11:16:35.448   44.400482772    8.963482455    75.3882   5   9  21.2132  21.2132  21.2132  -0.0000  -0.0000   0.0000   0.45    0.0
2019/09/06 11:16:36.448   44.400538133    8.963432415    77.6254   5   9  21.2132  21.2132  21.2132   0.0000  -0.0000   0.0000   0.45    0.0
2019/09/06 11:16:38.448   44.400504220    8.963434269    72.7414   5   9  21.2132  21.2132  21.2132   0.0000   0.0000   0.0000   0.45    0.0
2019/09/06 11:16:40.448   44.400497130    8.963436591    73.1860   5   9  21.2132  21.2132  21.2132   0.0000  -0.0000   0.0000   0.45    0.0
2019/09/06 11:16:41.448   44.400481972    8.963471521    89.1212   5   9  21.2132  21.2132  21.2132   0.0000  -0.0000  -0.0000   0.45    0.0
2019/09/06 11:16:42.448   44.400534978    8.963422560    78.7405   5   9  21.2132  21.2132  21.2132  -0.0000  -0.0000  -0.0000   0.45    0.0
2019/09/06 11:16:43.448   44.400517231    8.963497871    92.9622   5   9  21.2132  21.2132  21.2132   0.0000   0.0000   0.0000   0.45    0.0
2019/09/06 11:16:44.448   44.400503966    8.963449671    87.4334   5   9  21.2132  21.2132  21.2132  -0.0000  -0.0000  -0.0000   0.45    0.0
2019/09/06 11:16:47.448   44.400507252    8.963416064    78.9019   5   8  21.2132  21.2132  21.2132  -0.0000  -0.0000  -0.0000   0.45    0.0
2019/09/06 11:16:48.448   44.400483532    8.963493313    82.0727   5   9  21.2132  21.2132  21.2132   0.0000  -0.0000  -0.0000   0.45    0.0
2019/09/06 11:16:54.448   44.400489048    8.963381252   100.8072   5   8  21.2132  21.2132  21.2132  -0.0000   0.0000   0.0000   0.45    0.0
2019/09/06 11:17:16.448   44.400515291    8.963479232    67.8811   5   9  21.2132  21.2132  21.2132   0.0000   0.0000   0.0000   0.45    0.0
2019/09/06 11:17:32.448   44.400482701    8.963457800   100.4348   5   9  21.2132  21.2132  21.2132   0.0000   0.0000   0.0000   0.45    0.0
2019/09/06 11:17:39.448   44.400561875    8.963482086    97.8654   5  10  21.2132  21.2132  21.2132   0.0000   0.0000   0.0000   0.45    0.0
2019/09/06 11:17:48.448   44.400444933    8.963508734   107.9964   5   9  21.2132  21.2132  21.2132  -0.0000  -0.0000   0.0000   0.45    0.0
2019/09/06 11:17:58.448   44.400365655    8.963553804   130.0172   5  10  21.2132  21.2132  21.2132   0.0000   0.0000   0.0000   0.45    0.0
2019/09/06 11:18:00.448   44.400469196    8.963512447   102.2076   5   9  21.2132  21.2132  21.2132   0.0000   0.0000  -0.0000   0.45    0.0
2019/09/06 11:18:03.448   44.400473309    8.963516651    95.7698   5   8  21.2132  21.2132  21.2132   0.0000  -0.0000  -0.0000   0.45    0.0
2019/09/06 11:18:04.448   44.400467262    8.963523635    99.9432   5   8  21.2132  21.2132  21.2132   0.0000  -0.0000  -0.0000   0.45    0.0
2019/09/06 11:18:05.448   44.400448392    8.963520510    80.5251   5   8  21.2132  21.2132  21.2132  -0.0000   0.0000   0.0000   0.45    0.0
2019/09/06 11:18:06.448   44.400470954    8.963499921   102.9068   5   9  21.2132  21.2132  21.2132  -0.0000   0.0000   0.0000   0.45    0.0
2019/09/06 11:18:09.448   44.400508095    8.963527330    78.1930   5   8  21.2132  21.2132  21.2132   0.0000  -0.0000   0.0000   0.45    0.0
2019/09/06 11:18:10.448   44.400559820    8.963445375    79.0281   5   9  21.2132  21.2132  21.2132   0.0000   0.0000  -0.0000   0.45    0.0
2019/09/06 11:18:11.448   44.400473732    8.963439246    89.5631   5   9  21.2132  21.2132  21.2132   0.0000  -0.0000  -0.0000   0.45    0.0
2019/09/06 11:18:13.448   44.400516368    8.963485931    90.8859   5   9  21.2132  21.2132  21.2132  -0.0000  -0.0000  -0.0000   0.45    0.0
2019/09/06 11:18:34.448   44.400381834    8.963427161   118.7047   5  10  21.2132  21.2132  21.2132   0.0000  -0.0000   0.0000   0.45    0.0
2019/09/06 11:18:40.448   44.400458355    8.963423886    96.8108   5   9  21.2132  21.2132  21.2132   0.0000  -0.0000  -0.0000   0.45    0.0
2019/09/06 11:19:47.448   44.400572224    8.963463360   109.9622   5   9  21.2132  21.2132  21.2132   0.0000   0.0000   0.0000   0.45    0.0
2019/09/06 11:21:18.448   44.400408757    8.963504448   109.2420   5  11  21.2132  21.2132  21.2132  -0.0000   0.0000   0.0000   0.45    0.0
2019/09/06 11:21:19.448   44.400389609    8.963491499   108.5246   5  11  21.2132  21.2132  21.2132  -0.0000  -0.0000   0.0000   0.45    0.0
2019/09/06 11:21:21.448   44.400384542    8.963484828   110.4106   5  11  21.2132  21.2132  21.2132  -0.0000  -0.0000   0.0000   0.45    0.0
2019/09/06 11:21:23.448   44.400404585    8.963440448   104.9042   5  11  21.2132  21.2132  21.2132  -0.0000   0.0000  -0.0000   0.45    0.0
2019/09/06 11:28:09.448   44.400461292    8.963528606   106.2631   5  10  21.2132  21.2132  21.2132  -0.0000  -0.0000  -0.0000   0.45    0.0
2019/09/06 11:30:25.448   44.400507641    8.963550635    89.1903   5   9  21.2132  21.2132  21.2132   0.0000  -0.0000   0.0000   0.45    0.0
2019/09/06 11:30:29.448   44.400468072    8.963529148   106.7369   5   9  21.2132  21.2132  21.2132   0.0000   0.0000  -0.0000   0.45    0.0
2019/09/06 11:30:31.448   44.400451774    8.963476316    77.7484   5   9  21.2132  21.2132  21.2132  -0.0000   0.0000  -0.0000   0.45    0.0
2019/09/06 11:30:32.448   44.400481172    8.963461586    87.3178   5   9  21.2132  21.2132  21.2132   0.0000   0.0000   0.0000   0.45    0.0
2019/09/06 11:30:33.448   44.400478419    8.963454665    77.8633   5   9  21.2132  21.2132  21.2132   0.0000  -0.0000  -0.0000   0.45    0.0
2019/09/06 11:30:34.448   44.400487451    8.963470227    82.8161   5   9  21.2132  21.2132  21.2132   0.0000  -0.0000  -0.0000   0.45    0.0
2019/09/06 11:30:37.448   44.400413233    8.963511964   103.3065   5   9  21.2132  21.2132  21.2132   0.0000  -0.0000   0.0000   0.45    0.0
2019/09/06 11:30:41.448   44.400466742    8.963515752    99.1282   5   8  21.2132  21.2132  21.2132  -0.0000  -0.0000  -0.0000   0.45    0.0
