     3.03           OBSERVATION DATA    M: Mixed            RINEX VERSION / TYPE
Geo++ RINEX Logger  Geo++               20190801 080228 UTC PGM / RUN BY / DATE
************************************************************COMMENT
This file was generated by the Geo++ RINEX Logger App       COMMENT
for Android devices (Version 2.1.3). If you encounter       COMMENT
any issues, please send an email to android@geopp.de        COMMENT
************************************************************COMMENT
Geo++                                                       MARKER NAME
GEODETIC                                                    MARKER TYPE
Geo++               Geo++                                   OBSERVER / AGENCY
unknown             Xiaomi              MI 8                REC # / TYPE / VERS
unknown             MI 8                                    ANT # / TYPE
  3842468.5222   650478.2802  5032260.1762                  APPROX POSITION XYZ
        0.0000        0.0000        0.0000                  ANTENNA: DELTA H/E/N
G    8 C1C L1C D1C S1C C5Q L5Q D5Q S5Q                      SYS / # / OBS TYPES
R    4 C1C L1C D1C S1C                                      SYS / # / OBS TYPES
E   12 C1B L1B D1B S1B C1C L1C D1C S1C C5Q L5Q D5Q S5Q      SYS / # / OBS TYPES
C    4 C2I L2I D2I S2I                                      SYS / # / OBS TYPES
J    8 C1C L1C D1C S1C C5Q L5Q D5Q S5Q                      SYS / # / OBS TYPES
  2019     8     1     8     2   46.0000000     GPS         TIME OF FIRST OBS
 24 R01  1 R02 -4 R03  5 R04  6 R05  1 R06 -4 R07  5 R08  6 GLONASS SLOT / FRQ #
    R09 -2 R10 -7 R11  0 R12 -1 R13 -2 R14 -7 R15  0 R16 -1 GLONASS SLOT / FRQ #
    R17  4 R18 -3 R19  3 R20  2 R21  4 R22 -3 R23  3 R24  2 GLONASS SLOT / FRQ #
G L1C                                                       SYS / PHASE SHIFT
G L5Q -0.25000                                              SYS / PHASE SHIFT
R L1C                                                       SYS / PHASE SHIFT
E L1B                                                       SYS / PHASE SHIFT
E L1C +0.50000                                              SYS / PHASE SHIFT
E L5Q -0.25000                                              SYS / PHASE SHIFT
C L2I                                                       SYS / PHASE SHIFT
J L1C                                                       SYS / PHASE SHIFT
J L5Q -0.25000                                              SYS / PHASE SHIFT
 C1C    0.000 C1P    0.000 C2C    0.000 C2P    0.000        GLONASS COD/PHS/BIS
                                                            END OF HEADER
> 2019  8  1  8  2 46.0000000  2  0
> 2019  8  1  8  2 46.0000000  0 25
C11  25820397.411   134453584.6131       2874.792          24.908  
C12  21364477.480   111250440.4651       -397.260          30.936  
C13  38872842.691   202421092.7231      -1189.785          25.518  
C20  26416713.390   137558758.8191       -788.311          24.110  
C24  22740246.055   118414428.2441      -1963.143          31.211  
C25  23349180.898   121585311.5611       1340.298          31.255  
C26  25394255.623                       -3734.600          22.139  
E27                                                                                                                                  24466105.967    96010254.3071       1145.951          30.120  
E36                                                                                                                                  25649051.931   100652388.8431      -2010.823          26.783  
G02  25402910.331   133493194.0291      -3421.273          25.948  
G05  23572118.862   123872319.8611        394.663          34.032  
G09  25259108.283                         571.059          22.596    25259114.279                         427.324          23.455  
G16  23364554.256   122781560.8681       3085.514          27.502  
G21  22034530.112                        2154.676          21.733  
G23  25206729.145   132462255.6721       -936.974          29.810  
G25  22545002.320   118474786.4511      -3407.271          32.663    22545005.617    88471444.2631      -2544.385          26.655  
G26  21381289.841   112359435.8531       1920.241          31.242    21381288.342    83904767.6361       1433.843          29.464  
G29  20664590.102   108593152.9991      -1806.019          33.221  
G31  21880262.909   114981557.1631      -2381.391          36.530  
R06  23562826.495                       -1707.397          18.676  
R07  23393864.964   125229190.4281       1507.448          28.610  
R15  22148465.636                        3574.254          24.697  
R17  23015531.379   123160756.6101       3721.762          30.622  
R23  19584345.240   104763040.5731      -2136.220          33.057  
R24  19713254.198   105415629.3371       1564.391          29.343  
> 2019  8  1  8  2 47.0000000  0 24
C11  25819845.793   134450709.396        2875.217          24.763  
C12  21364553.927   111250837.565        -397.100          31.214  
C13  38873066.336                       -1188.069          25.552  
C20  26416862.986                        -788.208          23.979  
C24  22740624.094   118416391.257       -1963.013          31.020  
C25  23348922.178   121583971.214        1340.347          30.663  
C26  25394976.324                       -3726.830          19.779  
E27                                                                                                                                  24465814.569    96009108.105        1146.202          29.787  
E36                                                                                                                                  25649564.876   100654399.426       -2010.583          27.684  
G02  25403565.677   133496614.760       -3420.731          25.618  
G05  23572047.211   123871925.309         394.552          33.457  
G09  25259006.354                         572.368          23.291    25259002.157                         427.674          23.147  
G16  23363971.759   122778474.970        3085.898          27.619  
G21  22034119.996                        2158.329          21.621  
G23  25206907.821   132463192.577        -936.905          29.632  
G25  22545651.970   118478193.462       -3407.011          32.369    22545653.169                       -2543.743          25.541  
G26  21380924.694   112357515.385        1920.468          31.294    21380922.895    83903333.477        1434.159          29.043  
G29  20664932.765   108594958.919       -1805.920          32.826  
G31  21880715.296   114983938.532       -2381.369          36.773  
R07  23393587.956   125227683.180        1507.248          28.557  
R15  22147786.307                        3571.850          25.537  
R17  23014847.253   123157034.428        3722.183          30.749  
R23  19584747.561   104765176.748       -2136.175          33.043  
R24  19712966.098   105414064.968        1564.369          28.942  
> 2019  8  1  8  2 48.0000000  0 25
C11  25819292.975                        2875.610          24.575  
C12  21364627.676   111251234.729        -397.163          31.305  
C13  38873294.178                       -1188.000          26.002  
C20  26417015.581                        -789.242          23.762  
C24  22741000.033   118418354.430       -1963.173          30.987  
C25  23348666.155   121582630.946        1340.268          30.438  
C26  25395689.230                       -3726.630          17.851  
E27                                                                                                                                  24465522.571    96007961.823        1146.282          30.347  
E36                                                                                                                                  25650078.120   100656409.821       -2010.396          27.302  
G02  25404219.825   133500035.425       -3420.665          24.878  
G05  23571971.664   123871531.035         394.274          32.699  
G09  25258887.636                         572.568          23.689    25258893.332    99121334.4691        427.103          23.914  
G16  23363384.465   122775388.875        3086.095          27.881  
G21  22033711.679                        2160.400          21.614  
G23  25207089.195   132464129.581        -937.004          29.387  
G25  22546302.220   118481600.356       -3406.894          32.527  
G26  21380558.647   112355595.038        1920.347          30.938    21380558.347    83901899.403        1434.074          29.486  
G29  20665279.325   108596764.814       -1805.895          32.777  
G31  21881169.182   114986320.008       -2381.476          36.498  
R06  23563406.893                       -1703.118          17.123  
R07  23393316.344   125226176.307        1506.873          27.971  
R15  22147124.665   118347538.9211       3572.987          26.255  
R17  23014157.131   123153312.144        3722.283          30.946  
R23  19585139.390   104767313.093       -2136.344          33.448  
R24  19712676.498   105412500.905        1564.062          29.199  
> 2019  8  1  8  2 49.0000000  0 25
C11  25818740.158                        2876.506          23.780  
C12  21364706.222   111251631.940        -397.211          31.226  
C13  38873525.019   202424658.2221      -1188.184          25.369  
C20  26417164.877                        -789.287          24.632  
C24  22741378.072   118420317.723       -1963.293          30.656  
C25  23348408.033   121581290.791        1340.154          30.513  
C26  25396414.128                       -3735.027          19.015  
E27                                                                                                                                  24465231.173    96006815.537        1146.286          29.818  
E36                                                                                                                                  25650588.967   100658420.095       -2010.273          27.369  
G02  25404864.678                       -3420.835          24.847  
G05  23571897.015   123871137.012         394.023          33.421  
G09  25258784.507   132735793.1091        571.754          23.789    25258783.608    99120907.316         427.153          22.474  
G16  23362794.474   122772302.581        3086.294          27.625  
G21  22033291.969                        2156.734          20.770  
G23  25207267.572   132465066.814        -937.234          29.234  
G25  22546949.771   118485007.172       -3406.816          32.234    22546949.172                       -2544.275          24.931  
G26  21380194.999   112353674.572        1920.466          31.332    21380192.301    83900465.340        1434.063          29.182  
G29  20665619.289   108598570.742       -1805.928          33.001  
G31  21881622.468   114988701.631       -2381.623          36.352  
R06  23563800.520                       -1704.194          16.537  
R07  23393036.038   125224669.722        1506.586          28.236  
R15  22146454.928                        3572.714          25.901  
R17  23013458.314   123149589.701        3722.443          30.868  
R23  19585542.911   104769449.706       -2136.613          33.237  
R24  19712380.303   105410937.144        1563.762          29.000  
> 2019  8  1  8  2 50.0000000  0 25
C11  25818186.441                        2876.035          23.852  
C12  21364782.369   111252029.444        -397.504          31.159  
C13  38873752.861   202425846.428       -1188.207          25.869  
C20  26417313.275                        -786.107          24.118  
C24  22741756.110   118422281.365       -1963.642          30.585  
C25  23348154.709   121579951.058        1339.733          30.861  
C26  25397127.335                       -3735.152          19.623  
E27                                                                                                                                  24464937.976    96005669.390        1146.146          29.645  
E36                                                                                                                                  25651101.312   100660430.359       -2010.264          27.644  
G02  25405516.727   133506875.9701      -3420.228          26.210  
G05  23571819.369   123870743.530         393.482          33.548  
G09  25258669.387                         571.446          23.641    25258675.383                         426.809          22.307  
G16  23362208.679   122769216.349        3086.232          27.639  
G21  22032891.447                        2152.341          20.672  
G23  25207442.651   132466004.456        -937.642          28.908  
G25  22547596.724   118488414.188       -3407.016          32.255    22547597.023    88481620.7901      -2544.179          25.297  
G26  21379829.252   112351754.483        1920.089          31.614    21379826.554    83899031.532        1433.808          29.263  
G29  20665966.149   108600377.046       -1806.304          33.254  
G31  21882076.654   114991083.688       -2382.057          36.514  
R06  23564087.722                       -1707.473          16.955  
R07  23392751.835   125223163.808        1505.914          28.185  
R15  22145775.299   118340393.2561       3572.784          25.400  
R17  23012758.299   123145867.436        3722.265          30.766  
R23  19585944.633   104771586.772       -2137.066          33.436  
R24  19712084.708   105409373.939        1563.204          29.089  
> 2019  8  1  8  2 51.0000000  0 25
C11  25817638.421                        2873.066          23.863  
C12  21364860.015   111252427.314        -397.870          30.752  
C13  38873977.705   202427034.161       -1187.732          26.761  
C20  26417467.068   137562702.5451       -789.558          24.905  
C24  22742133.848   118424245.473       -1964.107          30.533  
C25  23347895.688   121578611.720        1339.339          31.379  
C26  25397850.734                       -3738.619          19.667  
E27                                                                                                                                  24464645.978    96004523.390        1146.000          29.248  
E36                                                                                                                                  25651612.758   100662440.907       -2010.548          27.671  
G02  25406165.478   133510296.459       -3420.489          26.883  
G05  23571745.620   123870350.715         392.815          33.991  
G09  25258569.556                         570.588          23.512    25258568.657                         426.474          21.515  
G16  23361619.887                        3085.870          27.527  
G21  22032474.136                        2158.944          20.960  
G23  25207622.526   132466942.602        -938.146          29.058  
G25  22548244.275   118491821.415       -3407.227          31.890    22548245.774    88484165.240       -2544.450          24.281  
G26  21379465.304   112349834.693        1919.790          31.949    21379460.208    83897597.897        1433.635          28.576  
G29  20666309.711   108602183.689       -1806.644          33.676  
G31  21882527.541   114993466.235       -2382.547          36.354  
R06  23564405.801                       -1708.860          17.175  
R07  23392472.728   125221658.581        1505.227          28.904  
R15  22145114.556   118336820.813        3572.443          25.191  
R17  23012067.277   123142145.349        3722.087          30.978  
R23  19586338.860   104773724.356       -2137.584          33.046  
R24  19711793.909   105407811.302        1562.637          28.877  
> 2019  8  1  8  2 52.0000000  0 25
C11  25817085.604                        2874.259          24.051  
C12  21364934.664   111252825.283        -397.969          30.765  
C13  38874210.344   202428222.066       -1187.905          26.800  
C20  26417617.264   137563492.203        -789.658          25.414  
C24  22742508.589   118426209.713       -1964.240          30.384  
C25  23347639.965   121577272.500        1339.220          31.059  
C26  25398565.439                       -3738.613          18.917  
E27                                                                                                                                  24464353.680    96003377.438        1145.952          29.095  
E36                                                                                                                                  25652127.202   100664451.281       -2010.374          27.836  
G02  25406814.528   133513716.597       -3420.137          26.751  
G05  23571674.269   123869958.108         392.607          34.095  
G09  25258458.633                         570.188          23.302    25258457.134                         421.454          21.386  
G16  23361030.795   122763043.9021       3086.364          28.146  
G21  22032064.619                        2159.758          21.364  
G23  25207800.603   132467880.940        -938.337          28.619  
G25  22548893.026   118495228.569       -3407.154          31.555    22548897.223    88486709.482       -2544.242          23.872  
G26  21379098.358   112347914.980        1919.713          32.066    21379094.761    83896164.349        1433.548          28.180  
G29  20666653.873   108603990.364       -1806.675          33.651  
G31  21882982.327   114995848.907       -2382.672          36.243  
R06  23564698.998                       -1705.426          16.100  
R07  23392183.428   125220153.730        1504.851          28.705  
R15  22144454.113   118333248.306        3572.507          24.866  
R17  23011368.161   123138423.103        3722.246          30.669  
R23  19586738.783   104775862.205       -2137.848          33.295  
R24  19711502.811   105406249.058        1562.244          28.696  
> 2019  8  1  8  2 53.0000000  0 24
C11  25816535.185                        2875.840          23.782  
C12  21365010.811   111253223.349        -398.066          30.541  
C13  38874433.690   202429409.736       -1187.670          27.109  
C20  26417771.657   137564282.059        -789.856          25.280  
C24  22742885.128   118428174.152       -1964.439          29.895  
C25  23347379.146   121575933.432        1339.068          31.156  
C26  25399277.446                       -3731.772          18.869  
E27                                                                                                                                  24464061.383    96002231.441        1145.997          28.592  
E36                                                                                                                                  25652638.648   100666461.517       -2010.236          27.015  
G02  25407468.675   133517136.558       -3419.961          27.533  
G05  23571599.921   123869565.899         392.209          33.022  
G09  25258349.808   132733510.1201        570.281          23.661    25258350.708                         426.381          21.777  
G16  23360447.399                        3086.258          28.173  
G21  22031658.100                        2151.238          20.684  
G23  25207983.476   132468819.430        -938.490          28.809  
G25  22549540.278   118498635.702       -3407.133          31.711    22549542.976    88489253.729       -2544.248          24.224  
G26  21378733.811   112345995.269        1919.711          32.387    21378729.913    83894730.840        1433.510          28.471  
G29  20667002.232   108605797.115       -1806.751          33.414  
G31  21883438.311   114998231.795       -2382.888          36.384  
R07  23391889.632   125218649.258        1504.472          28.488  
R15  22143783.478                        3572.868          25.286  
R17  23010673.842   123134700.696        3722.407          30.826  
R23  19587156.993   104778000.294       -2138.090          33.359  
R24  19711223.704   105404687.050        1562.009          28.699  
> 2019  8  1  8  2 54.0000000  0 25
C11  25815979.669                        2876.343          23.405  
C12  21365087.558   111253621.543        -398.194          30.673  
C13  38874663.331   202430597.160       -1187.424          26.521  
C20  26417921.853                        -790.322          25.290  
C24  22743264.366   118430138.784       -1964.632          30.390  
C25  23347122.224   121574594.599        1338.832          31.174  
C26  25399992.151                       -3732.242          18.795  
E27                                                                                                                                  24463770.284    96001085.440        1146.001          29.319  
E36                                                                                                                                  25653150.993   100668471.844       -2010.327          26.014  
G02  25408114.129   133520556.503       -3419.945          27.452  
G05  23571520.476   123869174.099         391.799          32.359  
G09  25258240.384   132732940.190         569.930          23.485    25258242.483                         425.498          22.845  
G16  23359861.005   122756871.0631       3086.443          28.170  
G21  22031248.584                        2149.185          19.082  
G23  25208155.857   132469758.321        -938.891          28.444  
G25  22550193.226   118502042.830       -3407.127          31.589    22550191.427    88491798.123       -2544.394          24.501  
G26  21378370.762   112344075.743        1919.526          32.248    21378365.366    83893297.459        1433.381          29.173  
G29  20667344.895   108607604.058       -1806.943          32.763  
G31  21883890.098   115000614.994       -2383.199          36.060  
R06  23565317.170                       -1716.383          13.422  
R07  23391607.527   125217145.345        1503.913          27.940  
R15  22143126.033   118326103.5021       3572.421          25.665  
R17  23009981.621   123130978.336        3722.360          31.123  
R23  19587550.621   104780138.796       -2138.502          33.497  
R24  19710913.718   105403125.468        1561.582          28.340  
> 2019  8  1  8  2 55.0000000  0 24
C11  25815428.051   134427701.6141       2876.701          23.206  
C12  21365164.604   111254019.582        -398.039          31.004  
C13  38874895.070   202431784.166       -1187.006          26.290  
C20  26418074.448                        -788.012          24.914  
C24  22743640.905   118432103.325       -1964.541          31.343  
C25  23346865.301   121573255.746        1338.853          29.370  
C26  25400718.848                       -3734.476          18.263  
E27                                                                                                                                  24463477.387    95999939.195        1146.245          30.101  
E36                                                                                                                                  25653663.338   100670481.808       -2009.964          26.135  
G02  25408771.873   133523975.976       -3419.473          26.976  
G05  23571450.324   123868782.276         391.823          32.784  
G09  25258132.159                         569.702          23.550    25258132.159                         425.915          22.771  
G16  23359274.611   122753784.115        3086.948          27.115  
G21  22030832.772                        2154.547          19.957  
G23  25208332.734   132470697.093        -938.771          29.522  
G25  22550840.178   118505449.652       -3406.823          31.550    22550839.878                       -2543.770          24.470  
G26  21378006.214   112342156.080        1919.663          30.721    21378000.518    83891863.850        1433.609          29.555  
G29  20667687.258   108609410.818       -1806.760          33.286  
G31  21884342.185   115002998.069       -2383.075          36.360  
R07  23391332.617   125215641.588        1503.757          27.635  
R15  22142450.001                        3573.332          24.379  
R17  23009286.402   123127255.631        3722.705          31.427  
R23  19587942.749   104782277.267       -2138.471          32.509  
R24  19710619.922   105401564.014        1561.454          29.394  
> 2019  8  1  8  2 56.0000000  0 25
C11  25814868.938                        2878.372          22.546  
C12  21365242.251   111254416.292        -396.710          30.989  
C13  38875120.514   202432969.421       -1185.255          26.233  
C20  26418223.744   137566651.4091       -788.975          24.830  
C24  22744018.644   118434066.580       -1963.255          31.599  
C25  23346608.080   121571915.554        1340.193          30.062  
C26  25401427.857                       -3731.364          18.747  
E27                                                                                                                                  24463185.689    95998791.924        1147.271          30.153  
E36                                                                                                                                  25654174.485   100672490.491       -2008.684          25.982  
G02  25409421.224                       -3416.921          27.100  
G05  23571371.479   123868389.398         392.878          33.009  
G09  25258018.538                         572.186          23.630    25258026.632    99117934.8911        426.525          22.770  
G16  23358684.919   122750695.635        3088.480          27.487  
G21  22030421.157                        2157.796          20.170  
G23  25208515.908   132471634.589        -937.497          29.658  
G25  22551491.327   118508854.928       -3405.276          31.476    22551486.531                       -2542.249          23.965  
G26  21377639.268   112340234.918        1921.163          30.492    21377635.371    83890429.260        1434.590          29.809  
G29  20668028.721   108611216.138       -1805.320          33.037  
G31  21884799.069   115005379.870       -2381.801          36.475  
R06  23566050.163                       -1704.303          15.418  
R07  23391062.205   125214136.729        1504.858          27.819  
R15  22141767.973   118318956.6801       3574.196          25.329  
R17  23008591.783   123123531.354        3724.277          31.173  
R23  19588351.367   104784414.547       -2137.280          32.464  
R24  19710344.113   105400001.367        1562.647          29.349  
> 2019  8  1  8  2 57.0000000  0 25
C11  25814317.620                        2882.025          24.003  
C12  21365316.899   111254811.891        -395.599          30.633  
C13  38875349.556   202434153.333       -1183.912          26.046  
C20  26418372.741                        -788.132          25.204  
C24  22744392.785   118436028.841       -1962.261          31.020  
C25  23346349.359   121570574.374        1341.180          30.369  
C26  25402144.062                       -3729.967          17.829  
E27                                                                                                                                  24462893.092    95997643.615        1148.309          29.459  
E36                                                                                                                                  25654686.530   100674498.282       -2007.791          26.549  
G02  25410066.077   133530810.2091      -3416.405          27.883  
G05  23571299.229   123867995.648         393.749          32.915  
G09  25257911.812   132731227.2731        571.905          24.264    25257918.107                         427.538          22.158  
G16  23358095.227   122747605.729        3089.906          27.753  
G21  22030010.141                        2160.112          20.611  
G23  25208693.085   132472571.140        -936.551          29.151  
G25  22552137.080   118512259.022       -3404.094          31.921    22552135.282                       -2541.765          23.624  
G26  21377268.725   112338312.754        1922.163          32.045    21377268.425    83888993.782        1435.478          28.972  
G29  20668374.082   108613020.423       -1804.285          33.144  
G31  21885252.355   115007760.706       -2380.836          36.388  
R06  23566310.683                       -1698.498          15.362  
R07  23390783.398   125212631.101        1505.629          28.442  
R15  22141100.935                        3580.391          24.901  
R17  23007885.772   123119805.744        3725.610          31.567  
R23  19588738.099   104786550.860       -2136.312          32.666  
R24  19710033.828   105398437.895        1563.472          29.308  
> 2019  8  1  8  2 58.0000000  0 25
C11  25813765.702                        2881.991          24.010  
C12  21365392.447   111255207.390        -395.498          30.575  
C13  38875575.899   202435336.674       -1183.341          26.448  
C20  26418524.436                        -787.504          24.764  
C24  22744769.624   118437991.089       -1962.248          30.567  
C25  23346093.636   121569233.087        1341.287          29.834  
C26  25402850.672                       -3732.246          17.702  
E27                                                                                                                                  24462600.494    95996495.281        1148.335          29.595  
E36                                                                                                                                  25655197.077   100676505.833       -2007.551          26.599  
G02  25410721.424   133534226.177       -3415.967          27.896  
G05  23571226.380   123867601.975         393.673          32.950  
G09  25257810.781   132730655.154         572.118          23.651    25257805.685                         427.550          22.019  
G16  23357507.634   122744515.457        3090.271          27.394  
G21  22029601.224                        2165.389          19.431  
G23  25208872.061   132473507.721        -936.581          28.869  
G25  22552783.433   118515662.874       -3403.852          32.113    22552781.934                       -2540.982          22.849  
G26  21376905.376   112336390.350        1922.404          31.908    21376902.678    83887558.368        1435.414          29.133  
G29  20668717.645   108614824.571       -1804.148          32.874  
G31  21885703.543   115010141.526       -2380.820          36.339  
R06  23566590.689                       -1701.105          15.659  
R07  23390496.496   125211125.679        1505.422          28.731  
R15  22140441.691   118311805.8831       3575.458          25.037  
R17  23007192.952   123116079.804        3725.940          31.669  
R23  19589144.018   104788687.259       -2136.399          32.626  
R24  19709740.031   105396874.514        1563.380          29.352  
> 2019  8  1  8  2 59.0000000  0 25
C11  25813216.182                        2882.604          23.305  
C12  21365466.495   111255601.676        -394.287          30.265  
C13  38875801.043   202436518.518       -1181.844          27.225  
C20  26418681.527   137569014.4291       -786.991          25.572  
C24  22745149.161   118439952.146       -1961.056          30.164  
C25  23345833.716   121567890.658        1342.429          30.229  
C26  25403587.862                       -3727.012          19.072  
E27                                                                                                                                  24462309.096    95995345.865        1149.416          29.130  
E36                                                                                                                                  25655708.523   100678512.214       -2006.382          26.677  
G02  25411371.074   133537640.671       -3414.494          28.360  
G05  23571149.333   123867207.322         394.653          32.208  
G09  25257699.858                         573.127          23.585    25257697.460    99116652.8331        427.911          22.563  
G16  23356918.842   122741423.758        3091.699          27.852  
G21  22029176.718                        2159.252          20.704  
G23  25209051.637   132474443.168        -935.447          28.919  
G25  22553428.586   118519065.315       -3402.441          32.268    22553431.584                       -2541.220          24.258  
G26  21376537.831   112334466.742        1923.608          32.742    21376537.531    83886121.835        1436.533          28.167  
G29  20669061.806   108616627.438       -1802.866          32.508  
G31  21886157.129   115012521.202       -2379.676          35.893  
R06  23566924.358                       -1699.849          15.844  
R07  23390211.993   125209619.349        1506.330          28.815  
R15  22139764.760   118308229.018        3576.866          25.661  
R17  23006494.136   123112352.350        3727.453          31.221  
R23  19589538.245   104790822.479       -2135.220          32.484  
R24  19709459.425                        1564.996          28.857  
> 2019  8  1  8  3  0.0000000  0 25
C11  25812658.568                        2884.027          22.857  
C12  21365541.743   111255994.808        -393.131          30.134  
C13  38876026.787   202437698.844       -1180.326          27.228  
C20  26418830.524   137569800.266        -785.837          26.184  
C24  22745524.501   118441912.150       -1960.004          30.109  
C25  23345576.793   121566547.157        1343.501          30.732  
C26  25404298.970                       -3725.195          19.846  
E27                                                                                                                                  24462014.400    95994195.479        1150.386          28.908  
E36                                                                                                                                  25656221.467   100680517.686       -2005.471          26.612  
G02  25412021.024   133541053.787       -3413.116          28.534  
G05  23571075.584   123866811.772         395.550          32.360  
G09  25257585.338   132729508.3311        573.961          24.384    25257585.937                         429.081          22.149  
G16  23356330.349   122738330.642        3093.116          27.776  
G21  22028768.101                        2159.623          20.302  
G23  25209229.713   132475377.608        -934.440          28.871  
G25  22554076.438   118522466.496       -3401.181          32.355    22554080.335                       -2539.726          23.546  
G26  21376172.384   112332541.889        1924.854          33.208    21376169.985    83884684.480        1437.355          27.656  
G29  20669402.370   108618429.153       -1801.715          32.896  
G31  21886607.117   115014899.821       -2378.619          36.108  
R06  23567270.018                       -1699.156          17.397  
R07  23389928.689   125208112.102        1507.248          28.719  
R15  22139105.516   118304650.834        3578.183          25.980  
R17  23005811.208   123108623.628        3728.722          31.211  
R23  19589929.174   104792956.808       -2134.328          32.546  
R24  19709162.631   105393744.7441       1565.341          28.758  
> 2019  8  1  8  3  1.0000000  0 25
C11  25812104.852   134410414.6331       2883.716          23.365  
C12  21365619.389   111256387.592        -392.784          30.817  
C13  38876256.728   202438878.516       -1179.672          26.969  
C20  26418984.618   137570585.969        -785.703          25.492  
C24  22745899.242   118443871.966       -1959.816          30.636  
C25  23345319.572   121565203.378        1343.779          30.042  
C26  25405010.377                       -3723.977          20.637  
E27                                                                                                                                  24461720.903    95993044.846        1150.633          29.982  
E36                                                                                                                                  25656729.616   100682522.653       -2004.968          26.855  
G02  25412665.278   133544466.238       -3412.450          28.051  
G05  23570999.137   123866416.116         395.656          32.769  
G09  25257475.014   132728934.185         574.146          24.169    25257478.312                         427.516          22.652  
G16  23355743.955   122735236.950        3093.692          27.841  
G21  22028348.092                        2162.416          19.454  
G23  25209405.692   132476311.838        -934.230          29.325  
G25  22554724.889   118525867.176       -3400.680          32.428    22554725.788                       -2539.524          23.482  
G26  21375806.937   112330616.781        1925.108          32.284    21375805.138    83883246.915        1437.565          28.998  
G29  20669745.333   108620230.558       -1801.405          33.085  
G31  21887063.401   115017278.266       -2378.444          36.420  
R06  23567569.511                       -1698.670          17.893  
R07  23389653.180   125206604.884        1507.218          28.401  
R15  22138428.885   118301072.329        3578.506          26.090  
R17  23005109.994   123104894.416        3729.212          31.726  
R23  19590352.181   104795091.000       -2134.193          32.793  
R24  19708869.434   105392179.323        1565.421          28.901  
> 2019  8  1  8  3  2.0000000  0 25
C11  25811556.531                        2884.171          23.725  
C12  21365694.338   111256780.667        -393.075          30.651  
C13  38876479.473                       -1179.827          26.791  
C20  26419132.115                        -786.485          25.556  
C24  22746274.282   118445831.972       -1960.007          30.836  
C25  23345059.652   121563859.929        1343.449          29.916  
C26  25405728.380                       -3728.373          19.457  
E27                                                                                                                                  24461427.706    95991894.192        1150.653          29.786  
E36                                                                                                                                  25657241.961   100684527.758       -2005.105          26.584  
G02  25413318.526   133547878.598       -3412.360          27.856  
G05  23570923.289   123866020.932         395.184          32.781  
G09  25257364.390   132728360.445         573.740          24.040    25257370.386    99115366.9351        428.700          22.878  
G16  23355154.863   122732143.254        3093.696          27.420  
G21  22027954.464                        2161.230          20.011  
G23  25209582.569   132477246.376        -934.538          29.118  
G25  22555370.342   118529267.906       -3400.731          32.176    22555372.441                       -2540.102          24.808  
G26  21375440.890   112328691.798        1924.983          32.069    21375437.892                        1437.513          28.933  
G29  20670089.495   108622032.174       -1801.617          33.210  
G31  21887513.989   115019656.950       -2378.685          36.123  
R06  23567897.184                       -1702.093          16.221  
R07  23389363.880   125205098.185        1506.698          28.504  
R15  22137765.144                        3577.967          26.124  
R17  23004411.178   123101165.188        3729.228          31.528  
R23  19590730.220   104797225.486       -2134.486          32.415  
R24  19708580.434   105390614.384        1564.939          28.848  
> 2019  8  1  8  3  3.0000000  0 25
C11  25810997.119                        2886.372          22.713  
C12  21365769.586   111257173.596        -392.929          31.109  
C13  38876705.517   202441237.1531      -1179.107          26.142  
C20  26419287.708   137572158.1351       -786.121          25.059  
C24  22746652.020   118447791.985       -1960.013          31.261  
C25  23344802.430   121562516.428        1343.501          30.252  
C26  25406448.182                       -3729.708          19.541  
E27                                                                                                                                  24461134.509    95990743.426        1150.766          30.289  
E36                                                                                                                                  25657753.107   100686532.545       -2004.788          26.249  
G02  25413969.975   133551290.590       -3411.992          27.638  
G05  23570852.538   123865625.845         395.087          33.042  
G09  25257257.664   132727786.707         573.738          24.510    25257262.161                         429.256          23.397  
G16  23354564.571   122729049.196        3094.058          27.443  
G21  22027537.753                        2158.232          19.214  
G23  25209764.243   132478180.920        -934.543          29.580  
G25  22556016.994   118532668.483       -3400.576          31.445    22556019.692    88514667.8971      -2539.326          24.503  
G26  21375074.244   112326766.661        1925.137          31.310    21375072.145    83880371.7641       1437.589          29.802  
G29  20670433.956   108623833.643       -1801.468          33.161  
G31  21887964.278   115022035.688       -2378.737          36.111  
R06  23568285.715                       -1707.753          17.508  
R07  23389079.677   125203591.699        1506.487          28.098  
R15  22137087.014   118293915.1401       3578.711          26.297  
R17  23003707.265   123097435.607        3729.581          31.204  
R23  19591132.541   104799360.045       -2134.559          32.562  
R24  19708285.438   105389049.505        1564.879          28.723  
> 2019  8  1  8  3  4.0000000  0 25
C11  25810444.001                        2890.756          22.606  
C12  21365843.934   111257565.161        -391.565          30.569  
C13  38876933.359   202442414.522       -1177.369          26.584  
C20  26419433.407   137572942.939        -784.805          24.899  
C24  22747028.260   118449750.712       -1958.727          30.798  
C25  23344543.109   121561171.652        1344.776          29.779  
C26  25407151.495                       -3729.071          19.425  
E27                                                                                                                                  24460841.012    95989591.612        1151.814          29.500  
E36                                                                                                                                  25658263.953   100688536.141       -2003.596          25.776  
G02  25414623.222   133554700.853       -3410.263          26.406  
G05  23570774.293   123865229.623         396.222          33.336  
G09  25257149.439                         575.464          24.288    25257150.638                         430.797          22.014  
G16  23353970.982   122725953.482        3095.714          27.892  
G21  22027128.836                        2161.634          20.915  
G23  25209937.523   132479114.223        -933.303          29.334  
G25  22556666.045   118536067.510       -3399.027          30.857    22556664.846                       -2537.392          24.771  
G26  21374706.698   112324840.210        1926.451          31.318    21374705.200    83878933.211        1438.553          29.051  
G29  20670780.516   108625633.758       -1800.116          33.740  
G31  21888422.061   115024413.110       -2377.422          35.619  
R06  23568558.826                       -1706.641          16.081  
R07  23388809.264                        1508.205          26.749  
R15  22136430.768   118290335.137        3580.003          26.574  
R17  23003009.348   123093704.432        3731.174          30.795  
R23  19591515.676   104801493.383       -2133.337          31.840  
R24  19707992.541   105387483.564        1565.941          28.616  
> 2019  8  1  8  3  5.0000000  0 25
C11  25809886.687                        2889.606          22.595  
C12  21365920.081   111257955.373        -390.212          29.970  
C13  38877158.503                       -1175.375          24.666  
C20  26419582.404                        -783.552          24.777  
C24  22747403.001   118451708.147       -1957.435          30.756  
C25  23344282.589   121559825.668        1345.985          29.650  
C26  25407871.597                       -3719.240          18.997  
E27                                                                                                                                  24460546.916    95988438.562        1153.050          28.722  
E36                                                                                                                                  25658775.399   100690538.512       -2002.371          25.232  
G02  25415266.877                       -3408.294          25.343  
G05  23570701.143   123864832.280         397.343          32.374  
G09  25257037.916                         577.743          23.273    25257041.814                         431.870          21.609  
G16  23353382.490   122722856.270        3097.211          28.306  
G21  22026713.623                        2164.376          21.303  
G23  25210115.900   132480046.297        -932.074          29.120  
G25  22557312.098   118539465.019       -3397.510          29.883    22557313.897    88519743.2481      -2537.129          23.300  
G26  21374339.453   112322912.424        1927.785          32.185    21374338.553    83877493.522        1439.689          28.423  
G29  20671118.682   108627432.454       -1798.696          33.129  
G31  21888872.949   115026789.330       -2376.219          35.941  
R06  23568898.791                       -1702.905          18.687  
R07  23388515.468                        1509.831          24.735  
R15  22135756.535   118286753.583        3581.554          27.315  
R17  23002315.928   123089971.800        3732.632          30.890  
R23  19591916.498   104803625.544       -2132.161          30.909  
R24  19707696.046   105385916.437        1567.127          28.419  
> 2019  8  1  8  3  6.0000000  0 25
C11  25809336.568                        2888.723          22.808  
C12  21365994.730   111258344.811        -389.438          30.739  
C13  38877385.146   202444765.2841      -1174.604          26.317  
C20  26419737.696                        -782.887          25.567  
C24  22747779.540   118453664.873       -1956.725          30.962  
C25  23344026.866   121558478.766        1346.902          30.219  
C26  25408582.105                       -3711.712          18.160  
E27                                                                                                                                  24460254.318    95987284.924        1153.638          29.973  
E36                                                                                                                                  25659282.948   100692540.127       -2001.615          24.872  
G02  25415919.525   133561517.2631      -3407.647          27.133  
G05  23570624.096   123864434.342         397.937          33.106  
G09  25256933.289                         578.405          23.556    25256931.790                         430.797          22.223  
G16  23352792.498   122719757.990        3098.281          27.372  
G21  22026305.306                        2165.154          20.644  
G23  25210291.279   132480977.731        -931.434          29.073  
G25  22557958.151   118542861.597       -3396.578          29.951    22557957.851                       -2535.093          23.317  
G26  21373971.907   112320983.627        1928.798          31.855    21373971.308    83876053.278        1440.245          28.995  
G29  20671461.645   108629230.392       -1797.938          33.830  
G31  21889325.335   115029164.827       -2375.497          36.151  
R06  23569238.156                       -1703.472          17.915  
R07  23388244.455   125199064.5121       1509.109          27.279  
R15  22135075.406   118283171.022        3582.561          26.289  
R17  23001615.613   123086238.074        3733.726          31.231  
R23  19592327.514   104805756.915       -2131.371          31.541  
R24  19707395.354   105384348.762        1567.674          29.107  
> 2019  8  1  8  3  7.0000000  0 25
C11  25808780.153                        2889.954          22.712  
C12  21366069.678   111258733.678        -388.867          30.885  
C13  38877611.190   202445938.994       -1173.710          27.354  
C20  26419885.194   137575292.1201       -782.490          25.125  
C24  22748155.480   118455621.102       -1956.229          30.906  
C25  23343766.946   121557131.411        1347.354          30.229  
C26  25409304.904                       -3716.504          19.727  
E27                                                                                                                                  24459958.723    95986130.700        1154.224          29.568  
E36                                                                                                                                  25659793.794   100694541.148       -2001.021          26.876  
G02  25416566.777   133564923.964       -3406.701          28.261  
G05  23570550.647   123864036.015         398.327          33.914  
G09  25256819.967                         577.423          23.600    25256819.967                         431.479          21.408  
G16  23352202.806                        3099.653          27.559  
G21  22025892.492                        2166.197          20.941  
G23  25210469.955   132481908.613        -930.882          28.538  
G25  22558603.304   118546257.435       -3395.838          30.976    22558607.201    88524815.4421      -2535.915          23.176  
G26  21373604.661   112319054.310        1929.317          31.395    21373604.362    83874612.537        1440.741          29.572  
G29  20671802.509   108631027.687       -1797.294          33.733  
G31  21889773.525   115031539.800       -2374.974          36.227  
R06  23569520.860                       -1705.716          16.866  
R07  23387956.355   125197555.157        1509.355          28.803  
R15  22134408.068                        3583.278          26.085  
R17  23000920.994   123082503.547        3734.527          30.591  
R23  19592731.634   104807887.966       -2131.051          32.353  
R24  19707107.254   105382780.672        1568.090          28.608  
> 2019  8  1  8  3  8.0000000  0 25
C11  25808225.837                        2892.061          23.978  
C12  21366146.125   111259121.760        -388.082          31.154  
C13  38877837.533   202447111.553       -1172.559          27.506  
C20  26420035.990   137576074.005        -781.885          25.354  
C24  22748530.820   118457576.655       -1955.554          30.853  
C25  23343508.525   121555783.460        1347.951          30.028  
C26  25410012.115                       -3719.881          19.069  
E27                                                                                                                                  24459664.926    95984975.875        1154.825          29.651  
E36                                                                                                                                  25660302.242   100696541.533       -2000.385          26.807  
G02  25417207.733   133568329.628       -3405.664          28.165  
G05  23570477.498   123863637.286         398.729          34.125  
G09  25256711.742   132724904.5851        577.564          23.475    25256712.042                         431.705          22.756  
G16  23351614.913   122713558.6671       3100.080          27.582  
G21  22025491.070                        2163.032          20.985  
G23  25210645.034   132482838.998        -930.386          28.783  
G25  22559249.956   118549652.393       -3394.958          30.952    22559249.656                       -2535.118          23.864  
G26  21373236.516   112317124.218        1930.092          31.104    21373237.116    83873171.247        1441.290          28.650  
G29  20672146.970   108632824.282       -1796.595          33.816  
G31  21890226.512   115033914.158       -2374.357          36.235  
R06  23569870.418                       -1702.254          17.873  
R07  23387681.745   125196045.300        1509.858          29.288  
R15  22133749.124   118276003.7911       3583.975          26.727  
R17  23000221.578   123078768.051        3735.496          30.773  
R23  19593131.857   104810018.438       -2130.473          32.694  
R24  19706814.956   105381212.119        1568.553          28.254  
> 2019  8  1  8  3  9.0000000  0 25
C11  25807666.125   134387313.0171       2891.370          23.908  
C12  21366219.274   111259509.952        -388.192          31.125  
C13  38878062.377   202448283.343       -1171.790          27.717  
C20  26420183.188                        -781.613          25.036  
C24  22748907.359   118459532.351       -1955.696          31.298  
C25  23343249.505   121554435.584        1347.876          30.279  
C26  25410729.518                       -3719.342          19.845  
E27                                                                                                                                  24459370.230    95983820.987        1154.888          30.177  
E36                                                                                                                                  25660813.089   100698541.693       -2000.160          26.910  
G02  25417860.082   133571735.116       -3405.488          27.762  
G05  23570400.152   123863238.746         398.540          33.229  
G09  25256603.217                         579.982          22.818    25256600.519    99112355.1231        431.202          23.877  
G16  23351030.318   122710458.306        3100.362          27.702  
G21  22025080.954                        2170.443          21.684  
G23  25210824.909   132483769.425        -930.426          28.838  
G25  22559896.009   118553047.237       -3394.844          31.630    22559899.606                       -2535.337          24.639  
G26  21372870.470   112315194.200        1930.017          31.331    21372869.270    83871729.940        1441.307          29.798  
G29  20672489.333   108634620.890       -1796.609          33.337  
G31  21890679.498   115036288.683       -2374.525          36.291  
R06  23570228.370                       -1699.023          19.288  
R07  23387395.743   125194535.932        1509.368          28.645  
R15  22133084.484   118272419.729        3584.063          26.793  
R17  22999526.059   123075032.452        3735.599          30.527  
R23  19593527.883   104812149.108       -2130.670          32.877  
R24  19706531.952   105379643.853        1568.266          28.862  
> 2019  8  1  8  3 10.0000000  0 25
C11  25807117.205                        2892.397          23.608  
C12  21366296.021   111259899.542        -389.590          31.149  
C13  38878288.121   202449456.737       -1173.394          26.600  
C20  26420337.581   137577639.7261       -783.630          24.999  
C24  22749282.400   118461489.509       -1957.158          30.907  
C25  23342988.985   121553089.259        1346.325          30.023  
C26  25411449.619                       -3722.675          20.611  
E27                                                                                                                                  24459076.134    95982667.117        1153.870          30.080  
E36                                                                                                                                  25661322.436   100700542.873       -2001.180          26.646  
G02  25418510.931   133575141.800       -3406.684          26.637  
G05  23570322.805   123862841.992         396.755          33.833  
G09  25256492.594                         575.324          23.137    25256493.493    99111925.237         429.886          23.687  
G16  23350439.127   122707359.233        3099.072          26.721  
G21  22024663.643                        2164.452          22.520  
G23  25211001.487   132484701.527        -932.102          29.096  
G25  22560542.062   118556443.450       -3396.214          32.219    22560543.261    88532421.9351      -2536.210          25.901  
G26  21372504.123   112313265.581        1928.619          31.959    21372503.823    83870289.826        1440.114          29.579  
G29  20672829.298   108636418.959       -1798.069          33.994  
G31  21891132.784   115038664.750       -2376.067          36.514  
R06  23570480.796                       -1702.220          19.711  
R07  23387120.234   125193028.379        1507.553          28.013  
R15  22132412.650                        3584.604          26.049  
R17  22998828.442   123071298.258        3734.195          30.921  
R23  19593929.005   104814281.489       -2132.381          32.963  
R24  19706238.455   105378077.263        1566.590          29.540  
> 2019  8  1  8  3 11.0000000  0 25
C11  25806559.591                        2888.893          22.550  
C12  21366371.569   111260290.420        -390.878          31.793  
C13  38878513.565   202450630.864       -1174.127          28.074  
C19  26040593.772                        1511.474          11.084  
C20  26420482.680                        -786.260          25.516  
C24  22749658.639   118463448.120       -1958.610          29.340  
C25  23342731.463   121551744.186        1345.073          30.857  
C26  25412166.723                       -3724.151          17.618  
E27                                                                                                                                  24458781.738    95981514.049        1153.068          30.399  
E36                                                                                                                                  25661832.683   100702544.712       -2001.840          24.842  
G02  25419151.588   133578549.294       -3407.494          26.304  
G05  23570249.056   123862446.547         395.445          33.266  
G09  25256393.662                         574.957          20.604    25256384.669    99111496.311         428.926          22.150  
G16  23349845.538   122704261.036        3098.197          27.118  
G21  22024248.130                        2154.277          21.690  
G23  25211180.163   132485634.833        -933.306          29.017  
G25  22561188.114   118559840.701       -3397.250          32.269    22561189.613    88534958.804       -2536.869          26.041  
G26  21372135.678   112311338.155        1927.426          33.757    21372135.978    83868850.453        1439.372          30.344  
G29  20673171.661   108638218.224       -1799.265          36.724  
G31  21891585.471   115041042.228       -2377.478          35.466  
R07  23386849.221   125191522.248        1506.130          26.666  
R15  22131742.314   118265255.3451       3581.751          26.288  
R17  22998120.932   123067565.031        3733.226          30.313  
R23  19594322.633   104816415.187       -2133.698          33.914  
R24  19705946.757   105376512.263        1565.001          27.880  
> 2019  8  1  8  3 12.0000000  0 26
C11  25806005.874                        2888.322          22.401  
C12  21366447.116   111260682.101        -391.681          31.840  
C13  38878736.911                       -1176.177          27.215  
C19  26040287.384                        1516.404          12.833  
C20  26420635.575   137579210.7501       -785.982          25.798  
C24  22750034.279   118465407.474       -1959.354          28.015  
C25  23342473.642   121550400.043        1344.143          31.056  
C26  25412881.428                       -3718.403          18.795  
E02                                                                                                                                  26764471.742                       -2384.886          27.505  
